[
    {
        "name": "ＳＯＹＵＧａｍｅＦｉｅｌｄ御所野店",
        "address": "秋田県秋田市御所野地蔵田１ー１−１イオンモール秋田２Ｆ",
        "game": "CHUNITHM SUN",
        "area": "秋田県",
        "game_id": "109",
        "region_id": "4",
        "store_id": "28775",
        "latitude": "39.66341429285994",
        "longitude": "140.1610980386231",
        "map_url": "https://maps.google.com/maps.google.com/maps?q=ＳＯＹＵＧａｍｅＦｉｅｌｄ御所野店"
    },
    {
        "name": "ＧｉＧＯ秋田",
        "address": "秋田県秋田市茨島１−１−１６",
        "game": "CHUNITHM SUN",
        "area": "秋田県",
        "game_id": "109",
        "region_id": "4",
        "store_id": "29101",
        "latitude": "39.70423417527011",
        "longitude": "140.10458925767216",
        "map_url": "https://maps.google.com/maps.google.com/maps?q=ＧｉＧＯ秋田"
    },
    {
        "name": "ラウンドワン秋田店",
        "address": "秋田県秋田市卸町１−１−２",
        "game": "CHUNITHM SUN",
        "area": "秋田県",
        "game_id": "109",
        "region_id": "4",
        "store_id": "25453",
        "latitude": "39.70203189065408",
        "longitude": "140.1094121037048",
        "map_url": "https://maps.google.com/maps.google.com/maps?q=ラウンドワン秋田店"
    },
    {
        "name": "ロックンボウル",
        "address": "秋田県秋田市広面字長沼３０１",
        "game": "CHUNITHM SUN",
        "area": "秋田県",
        "game_id": "109",
        "region_id": "4",
        "store_id": "25200",
        "latitude": "39.71727900539106",
        "longitude": "140.14344325767206",
        "map_url": "https://maps.google.com/maps.google.com/maps?q=ロックンボウル"
    },
    {
        "name": "ペニーポット秋田",
        "address": "秋田県秋田市中通2-8-1フォンテ秋田4F",
        "game": "CHUNITHM SUN",
        "area": "秋田県",
        "game_id": "109",
        "region_id": "4",
        "store_id": "23282",
        "latitude": "39.7163482",
        "longitude": "140.1276316",
        "map_url": "https://maps.google.com/maps.google.com/maps?q=ペニーポット秋田"
    },
    {
        "name": "ｎａｍｃｏイオンタウン大館西店",
        "address": "秋田県大館市根下戸新町18-121イオンタウン大館西内",
        "game": "CHUNITHM SUN",
        "area": "秋田県",
        "game_id": "109",
        "region_id": "4",
        "store_id": "26406",
        "latitude": "40.27367784994902",
        "longitude": "140.53002058650816",
        "map_url": "https://maps.google.com/maps.google.com/maps?q=ｎａｍｃｏイオンタウン大館西店"
    },
    {
        "name": "ＳＯＹＵＧａｍｅＦｉｅｌｄ大館店",
        "address": "秋田県大館市御成町三丁目７番５８号いとく大館ＳＣ３階",
        "game": "CHUNITHM SUN",
        "area": "秋田県",
        "game_id": "109",
        "region_id": "4",
        "store_id": "19169",
        "latitude": "40.2808817",
        "longitude": "140.5603404",
        "map_url": "https://maps.google.com/maps.google.com/maps?q=ＳＯＹＵＧａｍｅＦｉｅｌｄ大館店"
    },
    {
        "name": "ゲームフィールド十文字店",
        "address": "秋田県横手市十文字町仁井田字東22-1スーパーモールラッキー内",
        "game": "CHUNITHM SUN",
        "area": "秋田県",
        "game_id": "109",
        "region_id": "4",
        "store_id": "23853",
        "latitude": "39.21611388765554",
        "longitude": "140.52105511415562",
        "map_url": "https://maps.google.com/maps.google.com/maps?q=ゲームフィールド十文字店"
    },
    {
        "name": "G3ポロス横手南店",
        "address": "秋田県横手市婦気大堤字中田4-1ｲｵﾝｽｰﾊﾟｰｾﾝﾀｰ横手南店2階",
        "game": "CHUNITHM SUN",
        "area": "秋田県",
        "game_id": "109",
        "region_id": "4",
        "store_id": "20807",
        "latitude": "39.29522403515897",
        "longitude": "140.55225130845952",
        "map_url": "https://maps.google.com/maps.google.com/maps?q=G3ポロス横手南店"
    },
    {
        "name": "プレイランドソピアいとくアクロス能代店",
        "address": "秋田県能代市字寺向70いとくアクロス能代店内",
        "game": "CHUNITHM SUN",
        "area": "秋田県",
        "game_id": "109",
        "region_id": "4",
        "store_id": "23855",
        "latitude": "40.1828157",
        "longitude": "140.0534784",
        "map_url": "https://maps.google.com/maps.google.com/maps?q=プレイランドソピアいとくアクロス能代店"
    },
    {
        "name": "ＳＯＹＵＧａｍｅＦｉｅｌｄ能代店",
        "address": "秋田県能代市鰄渕字古屋布１番イオンタウン能代内",
        "game": "CHUNITHM SUN",
        "area": "秋田県",
        "game_id": "109",
        "region_id": "4",
        "store_id": "19411",
        "latitude": "40.1888271",
        "longitude": "140.0775041",
        "map_url": "https://maps.google.com/maps.google.com/maps?q=ＳＯＹＵＧａｍｅＦｉｅｌｄ能代店"
    },
    {
        "name": "プラサカプコン大曲店",
        "address": "秋田県大仙市和合字坪立１７７イオン大曲ＳＣ２Ｆ",
        "game": "CHUNITHM SUN",
        "area": "秋田県",
        "game_id": "109",
        "region_id": "4",
        "store_id": "24830",
        "latitude": "39.4385014",
        "longitude": "140.5088973",
        "map_url": "https://maps.google.com/maps.google.com/maps?q=プラサカプコン大曲店"
    },
    {
        "name": "トム・ソーヤのなかまたち五城目店",
        "address": "秋田県南秋田郡五城目町大字大川西野字田屋前138ｲｵﾝSC五城目店",
        "game": "CHUNITHM SUN",
        "area": "秋田県",
        "game_id": "109",
        "region_id": "4",
        "store_id": "23346",
        "latitude": "39.93594913664304",
        "longitude": "140.10711945410617",
        "map_url": "https://maps.google.com/maps.google.com/maps?q=トム・ソーヤのなかまたち五城目店"
    },
    {
        "name": "トム・ソーヤのなかまたち湯沢店",
        "address": "秋田県湯沢市字上萩生田162イオンスーパーセンター湯沢店内",
        "game": "CHUNITHM SUN",
        "area": "秋田県",
        "game_id": "109",
        "region_id": "4",
        "store_id": "23190",
        "latitude": "39.150485",
        "longitude": "140.469426",
        "map_url": "https://maps.google.com/maps.google.com/maps?q=トム・ソーヤのなかまたち湯沢店"
    },
    {
        "name": "ゲームフィールド鷹巣店",
        "address": "秋田県北秋田市栄字前綱76　いとく鷹巣SC内",
        "game": "CHUNITHM SUN",
        "area": "秋田県",
        "game_id": "109",
        "region_id": "4",
        "store_id": "20051",
        "latitude": "40.232598",
        "longitude": "140.3800876",
        "map_url": "https://maps.google.com/maps.google.com/maps?q=ゲームフィールド鷹巣店"
    },
    {
        "name": "トム・ソーヤのなかまたち鷹巣店",
        "address": "秋田県北秋田市栄字中綱３１−１イオンタウン鷹巣店内",
        "game": "CHUNITHM SUN",
        "area": "秋田県",
        "game_id": "109",
        "region_id": "4",
        "store_id": "23140",
        "latitude": "40.2309648",
        "longitude": "140.3829018",
        "map_url": "https://maps.google.com/maps.google.com/maps?q=トム・ソーヤのなかまたち鷹巣店"
    },
    {
        "name": "モーリーファンタジー本荘",
        "address": "秋田県由利本荘市石脇田中１３８番地",
        "game": "CHUNITHM SUN",
        "area": "秋田県",
        "game_id": "109",
        "region_id": "4",
        "store_id": "19147",
        "latitude": "39.3915017",
        "longitude": "140.0274931",
        "map_url": "https://maps.google.com/maps.google.com/maps?q=モーリーファンタジー本荘"
    }
]