[
    {
        "name": "ＧｉＧＯ広島本通",
        "address": "広島県広島市中区本通９−３０ランドマークビル１Ｆ",
        "game": "CHUNITHM SUN",
        "area": "広島県",
        "game_id": "109",
        "region_id": "33",
        "store_id": "20395",
        "latitude": "34.39242668335568",
        "longitude": "132.46080075197597",
        "map_url": "https://maps.google.com/maps.google.com/maps?q=ＧｉＧＯ広島本通"
    },
    {
        "name": "ラウンドワン広島店",
        "address": "広島県広島市中区立町３−１１",
        "game": "CHUNITHM SUN",
        "area": "広島県",
        "game_id": "109",
        "region_id": "33",
        "store_id": "26812",
        "latitude": "34.39370127708191",
        "longitude": "132.46010387420506",
        "map_url": "https://maps.google.com/maps.google.com/maps?q=ラウンドワン広島店"
    },
    {
        "name": "ビバーチャ",
        "address": "広島県広島市中区南竹屋町１０−１７",
        "game": "CHUNITHM SUN",
        "area": "広島県",
        "game_id": "109",
        "region_id": "33",
        "store_id": "25126",
        "latitude": "34.37933339440375",
        "longitude": "132.46127920793458",
        "map_url": "https://maps.google.com/maps.google.com/maps?q=ビバーチャ"
    },
    {
        "name": "タイトーステーション広島紙屋町店",
        "address": "広島県広島市中区紙屋町２−２−２１",
        "game": "CHUNITHM SUN",
        "area": "広島県",
        "game_id": "109",
        "region_id": "33",
        "store_id": "27009",
        "latitude": "34.39405386033357",
        "longitude": "132.4560507717756",
        "map_url": "https://maps.google.com/maps.google.com/maps?q=タイトーステーション広島紙屋町店"
    },
    {
        "name": "タイトーステーション広島本通店",
        "address": "広島県広島市中区本通３−５せらかぐ本通ビル",
        "game": "CHUNITHM SUN",
        "area": "広島県",
        "game_id": "109",
        "region_id": "33",
        "store_id": "29166",
        "latitude": "34.39279837443898",
        "longitude": "132.4603899502972",
        "map_url": "https://maps.google.com/maps.google.com/maps?q=タイトーステーション広島本通店"
    },
    {
        "name": "ＧｉＧＯ中筋",
        "address": "広島県広島市安佐南区中筋４−１１−７",
        "game": "CHUNITHM SUN",
        "area": "広島県",
        "game_id": "109",
        "region_id": "33",
        "store_id": "29165",
        "latitude": "34.45533754708444",
        "longitude": "132.47884605398463",
        "map_url": "https://maps.google.com/maps.google.com/maps?q=ＧｉＧＯ中筋"
    },
    {
        "name": "ブラックジャックアクア店",
        "address": "広島県広島市安佐南区大町東４−１２−１１",
        "game": "CHUNITHM SUN",
        "area": "広島県",
        "game_id": "109",
        "region_id": "33",
        "store_id": "25195",
        "latitude": "34.4689057",
        "longitude": "132.4624719",
        "map_url": "https://maps.google.com/maps.google.com/maps?q=ブラックジャックアクア店"
    },
    {
        "name": "モーリーファンタジーf広島祇園",
        "address": "広島県広島市安佐南区祇園３−２−１　イオン広島祇園ＳＣ３Ｆ",
        "game": "CHUNITHM SUN",
        "area": "広島県",
        "game_id": "109",
        "region_id": "33",
        "store_id": "24532",
        "latitude": "34.44404557818127",
        "longitude": "132.46155085337296",
        "map_url": "https://maps.google.com/maps.google.com/maps?q=モーリーファンタジーf広島祇園"
    },
    {
        "name": "ふぇすたらんど五日市店",
        "address": "広島県広島市佐伯区八幡１−２４−１７サンリブ五日市店２Ｆ",
        "game": "CHUNITHM SUN",
        "area": "広島県",
        "game_id": "109",
        "region_id": "33",
        "store_id": "23725",
        "latitude": "34.386820931562525",
        "longitude": "132.35833231399943",
        "map_url": "https://maps.google.com/maps.google.com/maps?q=ふぇすたらんど五日市店"
    },
    {
        "name": "プラサカプコン広島店",
        "address": "広島県広島市佐伯区石内東４丁目１−１ジアウトレット広島",
        "game": "CHUNITHM SUN",
        "area": "広島県",
        "game_id": "109",
        "region_id": "33",
        "store_id": "20399",
        "latitude": "34.4117273",
        "longitude": "132.3976117",
        "map_url": "https://maps.google.com/maps.google.com/maps?q=プラサカプコン広島店"
    },
    {
        "name": "楽市楽座広島店",
        "address": "広島県広島市南区段原南１−３−５２広島段原ＳＣ７階７００１",
        "game": "CHUNITHM SUN",
        "area": "広島県",
        "game_id": "109",
        "region_id": "33",
        "store_id": "23232",
        "latitude": "34.3852255",
        "longitude": "132.47601859999997",
        "map_url": "https://maps.google.com/maps.google.com/maps?q=楽市楽座広島店"
    },
    {
        "name": "ｎａｍｃｏゆめタウン広島店",
        "address": "広島県広島市南区皆実町2-8-17ゆめタウン広島店３Ｆ",
        "game": "CHUNITHM SUN",
        "area": "広島県",
        "game_id": "109",
        "region_id": "33",
        "store_id": "24990",
        "latitude": "34.376079251262844",
        "longitude": "132.46376940122332",
        "map_url": "https://maps.google.com/maps.google.com/maps?q=ｎａｍｃｏゆめタウン広島店"
    },
    {
        "name": "アミパラ広島店",
        "address": "広島県広島市西区西観音町3-17",
        "game": "CHUNITHM SUN",
        "area": "広島県",
        "game_id": "109",
        "region_id": "33",
        "store_id": "28678",
        "latitude": "34.39343452722494",
        "longitude": "132.4364020343586",
        "map_url": "https://maps.google.com/maps.google.com/maps?q=アミパラ広島店"
    },
    {
        "name": "ＧｉＧＯＬＥＣＴ広島",
        "address": "広島県広島市西区扇町２−１−４５ＬＥＣＴ２Ｆ",
        "game": "CHUNITHM SUN",
        "area": "広島県",
        "game_id": "109",
        "region_id": "33",
        "store_id": "20671",
        "latitude": "34.371942994472754",
        "longitude": "132.40745622760005",
        "map_url": "https://maps.google.com/maps.google.com/maps?q=ＧｉＧＯＬＥＣＴ広島"
    },
    {
        "name": "ＧｉＧＯアルパーク北棟",
        "address": "広島県広島市西区草津南４ー７ー１アルパーク北棟２Ｆ",
        "game": "CHUNITHM SUN",
        "area": "広島県",
        "game_id": "109",
        "region_id": "33",
        "store_id": "24600",
        "latitude": "34.375512",
        "longitude": "132.3933319",
        "map_url": "https://maps.google.com/maps.google.com/maps?q=ＧｉＧＯアルパーク北棟"
    },
    {
        "name": "ふぇすたらんど可部",
        "address": "広島県広島市安佐北区可部7-4-13マルナカ可部店内",
        "game": "CHUNITHM SUN",
        "area": "広島県",
        "game_id": "109",
        "region_id": "33",
        "store_id": "24090",
        "latitude": "34.52339261614728",
        "longitude": "132.51151503869244",
        "map_url": "https://maps.google.com/maps.google.com/maps?q=ふぇすたらんど可部"
    },
    {
        "name": "アミューズメントパークＭＧジアス",
        "address": "広島県福山市柳津町１−７−６０",
        "game": "CHUNITHM SUN",
        "area": "広島県",
        "game_id": "109",
        "region_id": "33",
        "store_id": "28074",
        "latitude": "34.440636813169476",
        "longitude": "133.26064295213223",
        "map_url": "https://maps.google.com/maps.google.com/maps?q=アミューズメントパークＭＧジアス"
    },
    {
        "name": "ＧｉＧＯ福山",
        "address": "広島県福山市瀬戸町大字山北３００",
        "game": "CHUNITHM SUN",
        "area": "広島県",
        "game_id": "109",
        "region_id": "33",
        "store_id": "29014",
        "latitude": "34.476060386542564",
        "longitude": "133.31591932376898",
        "map_url": "https://maps.google.com/maps.google.com/maps?q=ＧｉＧＯ福山"
    },
    {
        "name": "あみぱらんど福山店",
        "address": "広島県福山市三吉町南２−８−２４",
        "game": "CHUNITHM SUN",
        "area": "広島県",
        "game_id": "109",
        "region_id": "33",
        "store_id": "27077",
        "latitude": "34.4884797",
        "longitude": "133.378434",
        "map_url": "https://maps.google.com/maps.google.com/maps?q=あみぱらんど福山店"
    },
    {
        "name": "アミパラ神辺店",
        "address": "広島県福山市神辺町大字新道上字１−２−１",
        "game": "CHUNITHM SUN",
        "area": "広島県",
        "game_id": "109",
        "region_id": "33",
        "store_id": "25767",
        "latitude": "34.545771080826555",
        "longitude": "133.3586390773155",
        "map_url": "https://maps.google.com/maps.google.com/maps?q=アミパラ神辺店"
    },
    {
        "name": "ラウンドワン福山店",
        "address": "広島県福山市明神町１−９−２８",
        "game": "CHUNITHM SUN",
        "area": "広島県",
        "game_id": "109",
        "region_id": "33",
        "store_id": "24808",
        "latitude": "34.489206192639486",
        "longitude": "133.3924382269836",
        "map_url": "https://maps.google.com/maps.google.com/maps?q=ラウンドワン福山店"
    },
    {
        "name": "ＧｉＧＯ海田",
        "address": "広島県安芸郡海田町南大正町３−３５",
        "game": "CHUNITHM SUN",
        "area": "広島県",
        "game_id": "109",
        "region_id": "33",
        "store_id": "29163",
        "latitude": "34.36763663920561",
        "longitude": "132.53367414785043",
        "map_url": "https://maps.google.com/maps.google.com/maps?q=ＧｉＧＯ海田"
    },
    {
        "name": "ｎａｍｃｏイオンモール広島府中",
        "address": "広島県安芸郡府中町大須2-1-1イオンモール広島府中3階",
        "game": "CHUNITHM SUN",
        "area": "広島県",
        "game_id": "109",
        "region_id": "33",
        "store_id": "26152",
        "latitude": "34.394621818025634",
        "longitude": "132.49979297679056",
        "map_url": "https://maps.google.com/maps.google.com/maps?q=ｎａｍｃｏイオンモール広島府中"
    },
    {
        "name": "アミパラここじゃ店",
        "address": "広島県東広島市西条町下見６−１０−１９",
        "game": "CHUNITHM SUN",
        "area": "広島県",
        "game_id": "109",
        "region_id": "33",
        "store_id": "28680",
        "latitude": "34.40758549269335",
        "longitude": "132.7155369093357",
        "map_url": "https://maps.google.com/maps.google.com/maps?q=アミパラここじゃ店"
    },
    {
        "name": "ブラックジャック東広島店",
        "address": "広島県東広島市西条町御薗宇６１２０",
        "game": "CHUNITHM SUN",
        "area": "広島県",
        "game_id": "109",
        "region_id": "33",
        "store_id": "27732",
        "latitude": "34.414198738428674",
        "longitude": "132.7533557558197",
        "map_url": "https://maps.google.com/maps.google.com/maps?q=ブラックジャック東広島店"
    },
    {
        "name": "ＧｉＧＯ尾道",
        "address": "広島県尾道市新浜１−２−１３",
        "game": "CHUNITHM SUN",
        "area": "広島県",
        "game_id": "109",
        "region_id": "33",
        "store_id": "29040",
        "latitude": "34.403039752127754",
        "longitude": "133.18631311595595",
        "map_url": "https://maps.google.com/maps.google.com/maps?q=ＧｉＧＯ尾道"
    },
    {
        "name": "アミパラ東尾道店",
        "address": "広島県尾道市高須町５６８８",
        "game": "CHUNITHM SUN",
        "area": "広島県",
        "game_id": "109",
        "region_id": "33",
        "store_id": "18803",
        "latitude": "34.4304801",
        "longitude": "133.23158",
        "map_url": "https://maps.google.com/maps.google.com/maps?q=アミパラ東尾道店"
    },
    {
        "name": "ＧｉＧＯ広",
        "address": "広島県呉市広中町１−９",
        "game": "CHUNITHM SUN",
        "area": "広島県",
        "game_id": "109",
        "region_id": "33",
        "store_id": "27910",
        "latitude": "34.2285551",
        "longitude": "132.6294083",
        "map_url": "https://maps.google.com/maps.google.com/maps?q=ＧｉＧＯ広"
    },
    {
        "name": "ふぇすたらんど広店",
        "address": "広島県呉市広本町２丁目１７−１　イオン広店４Ｆ",
        "game": "CHUNITHM SUN",
        "area": "広島県",
        "game_id": "109",
        "region_id": "33",
        "store_id": "19758",
        "latitude": "34.2338435",
        "longitude": "132.6230721",
        "map_url": "https://maps.google.com/maps.google.com/maps?q=ふぇすたらんど広店"
    },
    {
        "name": "スペースV1廿日市店",
        "address": "広島県廿日市市本町４−２３",
        "game": "CHUNITHM SUN",
        "area": "広島県",
        "game_id": "109",
        "region_id": "33",
        "store_id": "26693",
        "latitude": "34.35179163525024",
        "longitude": "132.3340763772635",
        "map_url": "https://maps.google.com/maps.google.com/maps?q=スペースV1廿日市店"
    },
    {
        "name": "ｎａｍｃｏゆめタウン廿日市店",
        "address": "広島県廿日市市下平良2-2-1ゆめタウン廿日市店3F",
        "game": "CHUNITHM SUN",
        "area": "広島県",
        "game_id": "109",
        "region_id": "33",
        "store_id": "21343",
        "latitude": "34.34601688094568",
        "longitude": "132.3354783417683",
        "map_url": "https://maps.google.com/maps.google.com/maps?q=ｎａｍｃｏゆめタウン廿日市店"
    },
    {
        "name": "アミューズメントパークＭＧ府中天満屋店",
        "address": "広島県府中市府川町１８６−１府中天満屋２階",
        "game": "CHUNITHM SUN",
        "area": "広島県",
        "game_id": "109",
        "region_id": "33",
        "store_id": "19448",
        "latitude": "34.5698258",
        "longitude": "133.236885",
        "map_url": "https://maps.google.com/maps.google.com/maps?q=アミューズメントパークＭＧ府中天満屋店"
    }
]