[
    {
        "name": "アミューズパーク郡山",
        "address": "福島県郡山市安積町日出山2丁目80",
        "game": "CHUNITHM SUN",
        "area": "福島県",
        "game_id": "109",
        "region_id": "6",
        "store_id": "27828",
        "latitude": "37.374413087428266",
        "longitude": "140.38390210555724",
        "map_url": "https://maps.google.com/maps.google.com/maps?q=アミューズパーク郡山"
    },
    {
        "name": "タイトーＦ郡山オリエントパーク店",
        "address": "福島県郡山市安積町荒井字大久保３５−１",
        "game": "CHUNITHM SUN",
        "area": "福島県",
        "game_id": "109",
        "region_id": "6",
        "store_id": "20650",
        "latitude": "37.3744762",
        "longitude": "140.3487551",
        "map_url": "https://maps.google.com/maps.google.com/maps?q=タイトーＦ郡山オリエントパーク店"
    },
    {
        "name": "ｎａｍｃｏイオンタウン郡山店",
        "address": "福島県郡山市松木町２−８８イオンタウン郡山内",
        "game": "CHUNITHM SUN",
        "area": "福島県",
        "game_id": "109",
        "region_id": "6",
        "store_id": "27115",
        "latitude": "37.38929581959281",
        "longitude": "140.39067530450745",
        "map_url": "https://maps.google.com/maps.google.com/maps?q=ｎａｍｃｏイオンタウン郡山店"
    },
    {
        "name": "ＧｉＧＯ日和田",
        "address": "福島県郡山市日和田町字西中島７−１",
        "game": "CHUNITHM SUN",
        "area": "福島県",
        "game_id": "109",
        "region_id": "6",
        "store_id": "29364",
        "latitude": "37.44820074117053",
        "longitude": "140.3804128220902",
        "map_url": "https://maps.google.com/maps.google.com/maps?q=ＧｉＧＯ日和田"
    },
    {
        "name": "ラウンドワン郡山店",
        "address": "福島県郡山市向河原町４−５５",
        "game": "CHUNITHM SUN",
        "area": "福島県",
        "game_id": "109",
        "region_id": "6",
        "store_id": "25466",
        "latitude": "37.4023215",
        "longitude": "140.395636",
        "map_url": "https://maps.google.com/maps.google.com/maps?q=ラウンドワン郡山店"
    },
    {
        "name": "ＧｉＧＯ福島南",
        "address": "福島県福島市黒岩字中島７−２",
        "game": "CHUNITHM SUN",
        "area": "福島県",
        "game_id": "109",
        "region_id": "6",
        "store_id": "28772",
        "latitude": "37.7277789",
        "longitude": "140.4671413",
        "map_url": "https://maps.google.com/maps.google.com/maps?q=ＧｉＧＯ福島南"
    },
    {
        "name": "サープラ福島あそびタウン",
        "address": "福島県福島市栄町１−１　パワーシティーピボット内",
        "game": "CHUNITHM SUN",
        "area": "福島県",
        "game_id": "109",
        "region_id": "6",
        "store_id": "28977",
        "latitude": "37.75427337726991",
        "longitude": "140.4601862816147",
        "map_url": "https://maps.google.com/maps.google.com/maps?q=サープラ福島あそびタウン"
    },
    {
        "name": "ＧｉＧＯ福島",
        "address": "福島県福島市本内中井１−２",
        "game": "CHUNITHM SUN",
        "area": "福島県",
        "game_id": "109",
        "region_id": "6",
        "store_id": "29362",
        "latitude": "37.785228678064314",
        "longitude": "140.48751231779102",
        "map_url": "https://maps.google.com/maps.google.com/maps?q=ＧｉＧＯ福島"
    },
    {
        "name": "ラウンドワン福島店",
        "address": "福島県福島市太田町14-18",
        "game": "CHUNITHM SUN",
        "area": "福島県",
        "game_id": "109",
        "region_id": "6",
        "store_id": "25826",
        "latitude": "37.752549134228815",
        "longitude": "140.45613065767213",
        "map_url": "https://maps.google.com/maps.google.com/maps?q=ラウンドワン福島店"
    },
    {
        "name": "ＧｉＧＯ勿来",
        "address": "福島県いわき市勿来町四沢字鍵田１３",
        "game": "CHUNITHM SUN",
        "area": "福島県",
        "game_id": "109",
        "region_id": "6",
        "store_id": "29070",
        "latitude": "36.88907200458248",
        "longitude": "140.78456335767214",
        "map_url": "https://maps.google.com/maps.google.com/maps?q=ＧｉＧＯ勿来"
    },
    {
        "name": "ＧｉＧＯ小名浜",
        "address": "福島県いわき市小名浜林城字塚前１８−１",
        "game": "CHUNITHM SUN",
        "area": "福島県",
        "game_id": "109",
        "region_id": "6",
        "store_id": "29373",
        "latitude": "36.985930372489236",
        "longitude": "140.89713489999997",
        "map_url": "https://maps.google.com/maps.google.com/maps?q=ＧｉＧＯ小名浜"
    },
    {
        "name": "ソユーゲームフィールド小名浜店",
        "address": "福島県いわき市小名浜字辰巳町７９イオンモールいわき小名浜３Ｆ",
        "game": "CHUNITHM SUN",
        "area": "福島県",
        "game_id": "109",
        "region_id": "6",
        "store_id": "20346",
        "latitude": "36.9468192",
        "longitude": "140.9037941",
        "map_url": "https://maps.google.com/maps.google.com/maps?q=ソユーゲームフィールド小名浜店"
    },
    {
        "name": "嶺宝スポーツセンター",
        "address": "福島県いわき市小名浜住吉折返２−２",
        "game": "CHUNITHM SUN",
        "area": "福島県",
        "game_id": "109",
        "region_id": "6",
        "store_id": "25370",
        "latitude": "36.9742494549186",
        "longitude": "140.89055803254087",
        "map_url": "https://maps.google.com/maps.google.com/maps?q=嶺宝スポーツセンター"
    },
    {
        "name": "ドリームファクトリーいわき店",
        "address": "福島県いわき市中央台飯野4-1",
        "game": "CHUNITHM SUN",
        "area": "福島県",
        "game_id": "109",
        "region_id": "6",
        "store_id": "21011",
        "latitude": "37.0124699",
        "longitude": "140.9165912",
        "map_url": "https://maps.google.com/maps.google.com/maps?q=ドリームファクトリーいわき店"
    },
    {
        "name": "モーリーファンタジーいわき",
        "address": "福島県いわき市平字三倉６８−１イオン３Ｆ",
        "game": "CHUNITHM SUN",
        "area": "福島県",
        "game_id": "109",
        "region_id": "6",
        "store_id": "24099",
        "latitude": "37.0510809",
        "longitude": "140.8981859",
        "map_url": "https://maps.google.com/maps.google.com/maps?q=モーリーファンタジーいわき"
    },
    {
        "name": "アミューズパークいわき神谷店",
        "address": "福島県いわき市平下神谷字馬洗７−１",
        "game": "CHUNITHM SUN",
        "area": "福島県",
        "game_id": "109",
        "region_id": "6",
        "store_id": "25080",
        "latitude": "37.065265855731866",
        "longitude": "140.94263148650816",
        "map_url": "https://maps.google.com/maps.google.com/maps?q=アミューズパークいわき神谷店"
    },
    {
        "name": "ＧｉＧＯ会津若松",
        "address": "福島県会津若松市町北町上荒久田字宮下１４２",
        "game": "CHUNITHM SUN",
        "area": "福島県",
        "game_id": "109",
        "region_id": "6",
        "store_id": "25507",
        "latitude": "37.518311487164766",
        "longitude": "139.9221731306884",
        "map_url": "https://maps.google.com/maps.google.com/maps?q=ＧｉＧＯ会津若松"
    },
    {
        "name": "スウィーツファクトリーパックン会津若松",
        "address": "福島県会津若松市幕内南町９−１０　ＭＥＧＡドンキ２階",
        "game": "CHUNITHM SUN",
        "area": "福島県",
        "game_id": "109",
        "region_id": "6",
        "store_id": "23506",
        "latitude": "37.48348387357307",
        "longitude": "139.9043327597717",
        "map_url": "https://maps.google.com/maps.google.com/maps?q=スウィーツファクトリーパックン会津若松"
    },
    {
        "name": "ＧｉＧＯ白河",
        "address": "福島県白河市新高山１−１　メガステージ白河内",
        "game": "CHUNITHM SUN",
        "area": "福島県",
        "game_id": "109",
        "region_id": "6",
        "store_id": "29363",
        "latitude": "37.119316278493336",
        "longitude": "140.19441793313524",
        "map_url": "https://maps.google.com/maps.google.com/maps?q=ＧｉＧＯ白河"
    },
    {
        "name": "ゲームスペースA-3",
        "address": "福島県西白河郡西郷村字豊作西15-16-17",
        "game": "CHUNITHM SUN",
        "area": "福島県",
        "game_id": "109",
        "region_id": "6",
        "store_id": "27231",
        "latitude": "37.124556",
        "longitude": "140.182612",
        "map_url": "https://maps.google.com/maps.google.com/maps?q=ゲームスペースA-3"
    },
    {
        "name": "ＳＯＹＵ　Ｅ−ＳＴＵＤＩＯ須賀川店",
        "address": "福島県須賀川市古河１０５イオンタウン須賀川Ｂ棟内",
        "game": "CHUNITHM SUN",
        "area": "福島県",
        "game_id": "109",
        "region_id": "6",
        "store_id": "25910",
        "latitude": "37.2984206",
        "longitude": "140.3852977",
        "map_url": "https://maps.google.com/maps.google.com/maps?q=ＳＯＹＵ　Ｅ−ＳＴＵＤＩＯ須賀川店"
    },
    {
        "name": "ＰＡＬＯ喜多方",
        "address": "福島県喜多方市字押切南２−４２−１リオンドールガーデンＳＱ内",
        "game": "CHUNITHM SUN",
        "area": "福島県",
        "game_id": "109",
        "region_id": "6",
        "store_id": "25058",
        "latitude": "37.64680716977253",
        "longitude": "139.8595921062904",
        "map_url": "https://maps.google.com/maps.google.com/maps?q=ＰＡＬＯ喜多方"
    }
]