[
    {
        "name": "NORYANGJIN AMUSETOWN",
        "address": "26, Manyang-ro 14ga-gil, Dongjak-gu, Seoul",
        "game": "CHUNITHM International Version",
        "area": "Korea",
        "game_id": "104",
        "region_id": "1005",
        "store_id": "20468",
        "latitude": "37.5127094",
        "longitude": "126.9449436",
        "map_url": "https://maps.google.com/maps.google.com/maps?q=NORYANGJIN AMUSETOWN"
    },
    {
        "name": "KONKUK FUN CITY",
        "address": "81, Dongil-ro 22-gil, Gwangjin-gu, Seoul",
        "game": "CHUNITHM International Version",
        "area": "Korea",
        "game_id": "104",
        "region_id": "1005",
        "store_id": "20482",
        "latitude": "37.5414065",
        "longitude": "127.068776",
        "map_url": "https://maps.google.com/maps.google.com/maps?q=KONKUK FUN CITY"
    },
    {
        "name": "SAMSEONGYO WOORI 2",
        "address": "14, Samseongyo-ro 10-gil, Seongbuk-gu, Seoul",
        "game": "CHUNITHM International Version",
        "area": "Korea",
        "game_id": "104",
        "region_id": "1005",
        "store_id": "20478",
        "latitude": "37.5873226",
        "longitude": "127.0090045",
        "map_url": "https://maps.google.com/maps.google.com/maps?q=SAMSEONGYO WOORI 2"
    },
    {
        "name": "BEATLAB T",
        "address": "1029，Dongil-ro，Nowon-gu，Seoul",
        "game": "CHUNITHM International Version",
        "area": "Korea",
        "game_id": "104",
        "region_id": "1005",
        "store_id": "19597",
        "latitude": "37.6219281",
        "longitude": "127.0738431",
        "map_url": "https://maps.google.com/maps.google.com/maps?q=BEATLAB T"
    },
    {
        "name": "SINCHEON PPYONGPPYONG GAME LAND",
        "address": "46, Baekjegobun-ro 7-gil, Songpa-gu, Seoul",
        "game": "CHUNITHM International Version",
        "area": "Korea",
        "game_id": "104",
        "region_id": "1005",
        "store_id": "20476",
        "latitude": "37.510478",
        "longitude": "127.0838773",
        "map_url": "https://maps.google.com/maps.google.com/maps?q=SINCHEON PPYONGPPYONG GAME LAND"
    },
    {
        "name": "G2ZONE YEONGDEUNGPO",
        "address": "16, Yeongjung-ro 4-gil, Yeongdeungpo-gu, Seoul, Korea",
        "game": "CHUNITHM International Version",
        "area": "Korea",
        "game_id": "104",
        "region_id": "1005",
        "store_id": "19479",
        "latitude": "37.5172567",
        "longitude": "126.9080386",
        "map_url": "https://maps.google.com/maps.google.com/maps?q=G2ZONE YEONGDEUNGPO"
    },
    {
        "name": "FUNNYLAND",
        "address": "46-1, Eoulmadang-ro, Mapo-gu, Seoul",
        "game": "CHUNITHM International Version",
        "area": "Korea",
        "game_id": "104",
        "region_id": "1005",
        "store_id": "19871",
        "latitude": "37.5491266",
        "longitude": "126.921008",
        "map_url": "https://maps.google.com/maps.google.com/maps?q=FUNNYLAND"
    },
    {
        "name": "YEONSINNAE JJANGGU GAME",
        "address": "8-8, Yeonseo-ro 29-gil, Eunpyeong-gu, Seoul",
        "game": "CHUNITHM International Version",
        "area": "Korea",
        "game_id": "104",
        "region_id": "1005",
        "store_id": "20469",
        "latitude": "37.6189525",
        "longitude": "126.9196972",
        "map_url": "https://maps.google.com/maps.google.com/maps?q=YEONSINNAE JJANGGU GAME"
    },
    {
        "name": "GAME-D",
        "address": "10,Suyeong-ro 298beon-gil,Nam-gu,Busan",
        "game": "CHUNITHM International Version",
        "area": "Korea",
        "game_id": "104",
        "region_id": "1005",
        "store_id": "20241",
        "latitude": "35.1362742",
        "longitude": "129.0989805",
        "map_url": "https://maps.google.com/maps.google.com/maps?q=GAME-D"
    },
    {
        "name": "SAMBO R GAME",
        "address": "69, Seojeon-ro 10beon-gil, Busanjin-gu, Busan",
        "game": "CHUNITHM International Version",
        "area": "Korea",
        "game_id": "104",
        "region_id": "1005",
        "store_id": "20439",
        "latitude": "35.1552641",
        "longitude": "129.0606925",
        "map_url": "https://maps.google.com/maps.google.com/maps?q=SAMBO R GAME"
    },
    {
        "name": "BUSAN BOW GAME",
        "address": "48-2, Geumjeong-ro 60beon-gil, Geumjeong-gu, Busan",
        "game": "CHUNITHM International Version",
        "area": "Korea",
        "game_id": "104",
        "region_id": "1005",
        "store_id": "20240",
        "latitude": "35.2292051",
        "longitude": "129.0889504",
        "map_url": "https://maps.google.com/maps.google.com/maps?q=BUSAN BOW GAME"
    },
    {
        "name": "METRO GAME CENTER",
        "address": "5-205, 2100, Dalgubeol-daero, Jung-gu, Daegu",
        "game": "CHUNITHM International Version",
        "area": "Korea",
        "game_id": "104",
        "region_id": "1005",
        "store_id": "19846",
        "latitude": "35.8646637",
        "longitude": "128.5979695",
        "map_url": "https://maps.google.com/maps.google.com/maps?q=METRO GAME CENTER"
    },
    {
        "name": "NOLJA GAME",
        "address": "2F, 18, Jungang-daero 81-gil, Jung-gu, Daegu",
        "game": "CHUNITHM International Version",
        "area": "Korea",
        "game_id": "104",
        "region_id": "1005",
        "store_id": "19890",
        "latitude": "35.8698745",
        "longitude": "128.5926402",
        "map_url": "https://maps.google.com/maps.google.com/maps?q=NOLJA GAME"
    },
    {
        "name": "ROYAL GAME",
        "address": "454-1, Jungang-daero, Jung-gu, Daegu",
        "game": "CHUNITHM International Version",
        "area": "Korea",
        "game_id": "104",
        "region_id": "1005",
        "store_id": "20443",
        "latitude": "35.8735075",
        "longitude": "128.5948787",
        "map_url": "https://maps.google.com/maps.google.com/maps?q=ROYAL GAME"
    },
    {
        "name": "PSYMUSIC GAMEWORLD",
        "address": "B1, 408-1 ,Gung-dong, Yuseong-gu, Daejeon",
        "game": "CHUNITHM International Version",
        "area": "Korea",
        "game_id": "104",
        "region_id": "1005",
        "store_id": "19567",
        "latitude": "36.3626742",
        "longitude": "127.3507811",
        "map_url": "https://maps.google.com/maps.google.com/maps?q=PSYMUSIC GAMEWORLD"
    },
    {
        "name": "THE BUNKER GAMEZONE",
        "address": "34, Daehak-ro, Yuseong-gu, Daejeon",
        "game": "CHUNITHM International Version",
        "area": "Korea",
        "game_id": "104",
        "region_id": "1005",
        "store_id": "20417",
        "latitude": "36.3564331",
        "longitude": "127.3430268",
        "map_url": "https://maps.google.com/maps.google.com/maps?q=THE BUNKER GAMEZONE"
    },
    {
        "name": "GWANGJU GAMEPLAZA",
        "address": "5, Chungjangnoan-gil, Dong-gu, Gwangju",
        "game": "CHUNITHM International Version",
        "area": "Korea",
        "game_id": "104",
        "region_id": "1005",
        "store_id": "20319",
        "latitude": "35.1461042",
        "longitude": "126.9231228",
        "map_url": "https://maps.google.com/maps.google.com/maps?q=GWANGJU GAMEPLAZA"
    },
    {
        "name": "JUAN CPU",
        "address": "31, Michuhol-daero 734beon-gil,Michuhol-gu, Incheon",
        "game": "CHUNITHM International Version",
        "area": "Korea",
        "game_id": "104",
        "region_id": "1005",
        "store_id": "19762",
        "latitude": "37.4630241",
        "longitude": "126.6821976",
        "map_url": "https://maps.google.com/maps.google.com/maps?q=JUAN CPU"
    },
    {
        "name": "ATTACK GAME CENTER",
        "address": "190-14,SIMGOK 2-DONG,WONMI-GU,BUCHEON-SI,GYONGGI-DO,KOREA",
        "game": "CHUNITHM International Version",
        "area": "Korea",
        "game_id": "104",
        "region_id": "1005",
        "store_id": "21300",
        "latitude": "37.48707287119401",
        "longitude": "126.78292517578984",
        "map_url": "https://maps.google.com/maps.google.com/maps?q=ATTACK GAME CENTER"
    },
    {
        "name": "YEONGTONG JJANG",
        "address": "111, 30, BANDAL-RO 7BEON-GIL, YEONGTONG-GU, SUWON-SI,GYEONGGI-DO",
        "game": "CHUNITHM International Version",
        "area": "Korea",
        "game_id": "104",
        "region_id": "1005",
        "store_id": "20156",
        "latitude": "37.2531471",
        "longitude": "127.0748957",
        "map_url": "https://maps.google.com/maps.google.com/maps?q=YEONGTONG JJANG"
    },
    {
        "name": "GAME LAND",
        "address": "B1,38,Hwasin-ro272beon-gil,Deogyang-gu,Goyang-si,Gyeonggi-do",
        "game": "CHUNITHM International Version",
        "area": "Korea",
        "game_id": "104",
        "region_id": "1005",
        "store_id": "20265",
        "latitude": "37.6874014",
        "longitude": "126.864964",
        "map_url": "https://maps.google.com/maps.google.com/maps?q=GAME LAND"
    },
    {
        "name": "BEOMGYE GAME HEAVEN",
        "address": "55,Pyeongchon-daero223beon-gil,Dongan-gu, Anyang-si,Gyeonggi-do",
        "game": "CHUNITHM International Version",
        "area": "Korea",
        "game_id": "104",
        "region_id": "1005",
        "store_id": "20457",
        "latitude": "37.3926298",
        "longitude": "126.9768046",
        "map_url": "https://maps.google.com/maps.google.com/maps?q=BEOMGYE GAME HEAVEN"
    },
    {
        "name": "JINJU GAME LAND",
        "address": "42-7, Angol-ro 63beon-gil, Guri-si, Gyeonggi-do",
        "game": "CHUNITHM International Version",
        "area": "Korea",
        "game_id": "104",
        "region_id": "1005",
        "store_id": "20454",
        "latitude": "37.5995494",
        "longitude": "127.1386631",
        "map_url": "https://maps.google.com/maps.google.com/maps?q=JINJU GAME LAND"
    },
    {
        "name": "BIG GAME LAND",
        "address": "120-1, Gumijungang-ro, Gumi-si,Gyeongsangbuk-do",
        "game": "CHUNITHM International Version",
        "area": "Korea",
        "game_id": "104",
        "region_id": "1005",
        "store_id": "19848",
        "latitude": "36.1269696",
        "longitude": "128.335257",
        "map_url": "https://maps.google.com/maps.google.com/maps?q=BIG GAME LAND"
    },
    {
        "name": "SHINSEGYE GAMELAND",
        "address": "122-14, Hapseong1-dong,Masanhoewon,Changwon,Gyeongsangnam-do",
        "game": "CHUNITHM International Version",
        "area": "Korea",
        "game_id": "104",
        "region_id": "1005",
        "store_id": "19568",
        "latitude": "35.2206349",
        "longitude": "128.5795296",
        "map_url": "https://maps.google.com/maps.google.com/maps?q=SHINSEGYE GAMELAND"
    }
]