[
    {
        "name": "トヤマレジャーランド呉羽店",
        "address": "富山県富山市高木字貝塚2054",
        "game": "CHUNITHM SUN",
        "area": "富山県",
        "game_id": "109",
        "region_id": "15",
        "store_id": "28833",
        "latitude": "36.715424566897184",
        "longitude": "137.15799518299275",
        "map_url": "https://maps.google.com/maps.google.com/maps?q=トヤマレジャーランド呉羽店"
    },
    {
        "name": "アピナ富山豊田店",
        "address": "富山県富山市豊田町２丁目１２−６６",
        "game": "CHUNITHM SUN",
        "area": "富山県",
        "game_id": "109",
        "region_id": "15",
        "store_id": "25525",
        "latitude": "36.72101807991903",
        "longitude": "137.23550464498294",
        "map_url": "https://maps.google.com/maps.google.com/maps?q=アピナ富山豊田店"
    },
    {
        "name": "アピナ富山新庄店",
        "address": "富山県富山市荒川３−２−１２",
        "game": "CHUNITHM SUN",
        "area": "富山県",
        "game_id": "109",
        "region_id": "15",
        "store_id": "25578",
        "latitude": "36.6953333",
        "longitude": "137.2480711",
        "map_url": "https://maps.google.com/maps.google.com/maps?q=アピナ富山新庄店"
    },
    {
        "name": "富山レジャーランド掛尾店",
        "address": "富山県富山市掛尾町３６０−１",
        "game": "CHUNITHM SUN",
        "area": "富山県",
        "game_id": "109",
        "region_id": "15",
        "store_id": "18841",
        "latitude": "36.6660317",
        "longitude": "137.2088901",
        "map_url": "https://maps.google.com/maps.google.com/maps?q=富山レジャーランド掛尾店"
    },
    {
        "name": "ＧｉＧＯマリエとやま",
        "address": "富山県富山市桜町１丁目１番６１号マリエとやま４Ｆ",
        "game": "CHUNITHM SUN",
        "area": "富山県",
        "game_id": "109",
        "region_id": "15",
        "store_id": "19173",
        "latitude": "36.7003922",
        "longitude": "137.2141065",
        "map_url": "https://maps.google.com/maps.google.com/maps?q=ＧｉＧＯマリエとやま"
    },
    {
        "name": "タイトーステーション ファボーレ婦中店",
        "address": "富山県富山市婦中町下轡田１６５−１フューチャーファボーレ２F",
        "game": "CHUNITHM SUN",
        "area": "富山県",
        "game_id": "109",
        "region_id": "15",
        "store_id": "27747",
        "latitude": "36.66222633195811",
        "longitude": "137.1719943819902",
        "map_url": "https://maps.google.com/maps.google.com/maps?q=タイトーステーション ファボーレ婦中店"
    },
    {
        "name": "キッズサーカス五福店",
        "address": "富山県富山市五福1143-1",
        "game": "CHUNITHM SUN",
        "area": "富山県",
        "game_id": "109",
        "region_id": "15",
        "store_id": "23442",
        "latitude": "36.6955623",
        "longitude": "137.1925382",
        "map_url": "https://maps.google.com/maps.google.com/maps?q=キッズサーカス五福店"
    },
    {
        "name": "アピナ富山南店",
        "address": "富山県富山市堀川町３５５−３　マイプラザ内",
        "game": "CHUNITHM SUN",
        "area": "富山県",
        "game_id": "109",
        "region_id": "15",
        "store_id": "22978",
        "latitude": "36.664937",
        "longitude": "137.2173196",
        "map_url": "https://maps.google.com/maps.google.com/maps?q=アピナ富山南店"
    },
    {
        "name": "ゲームスポット２０７",
        "address": "富山県高岡市鐘紡町１６５５−３",
        "game": "CHUNITHM SUN",
        "area": "富山県",
        "game_id": "109",
        "region_id": "15",
        "store_id": "28308",
        "latitude": "36.73244043711583",
        "longitude": "137.00228740065188",
        "map_url": "https://maps.google.com/maps.google.com/maps?q=ゲームスポット２０７"
    },
    {
        "name": "ユーズランド高岡店",
        "address": "富山県高岡市下伏間江３８３イオンモール高岡２Ｆ",
        "game": "CHUNITHM SUN",
        "area": "富山県",
        "game_id": "109",
        "region_id": "15",
        "store_id": "27187",
        "latitude": "36.7241122685236",
        "longitude": "137.01701942631985",
        "map_url": "https://maps.google.com/maps.google.com/maps?q=ユーズランド高岡店"
    },
    {
        "name": "ＧｉＧＯイオンモール高岡",
        "address": "富山県高岡市下伏間江３８３イオンモール高岡２Ｆ２００１Ａ区画",
        "game": "CHUNITHM SUN",
        "area": "富山県",
        "game_id": "109",
        "region_id": "15",
        "store_id": "20031",
        "latitude": "36.724506323474536",
        "longitude": "137.01685695251467",
        "map_url": "https://maps.google.com/maps.google.com/maps?q=ＧｉＧＯイオンモール高岡"
    },
    {
        "name": "サービスエリアイン高岡",
        "address": "富山県高岡市石瀬８５７−１",
        "game": "CHUNITHM SUN",
        "area": "富山県",
        "game_id": "109",
        "region_id": "15",
        "store_id": "28818",
        "latitude": "36.760771232544954",
        "longitude": "137.04659718549283",
        "map_url": "https://maps.google.com/maps.google.com/maps?q=サービスエリアイン高岡"
    },
    {
        "name": "モーリーファンタジーとなみ",
        "address": "富山県砺波市中神１丁目１７４番地１イオンモール２Ｆ",
        "game": "CHUNITHM SUN",
        "area": "富山県",
        "game_id": "109",
        "region_id": "15",
        "store_id": "21293",
        "latitude": "36.641227674522675",
        "longitude": "136.94698136551574",
        "map_url": "https://maps.google.com/maps.google.com/maps?q=モーリーファンタジーとなみ"
    },
    {
        "name": "ゲームスポットアップル",
        "address": "富山県魚津市吉島二丁目４０７−１",
        "game": "CHUNITHM SUN",
        "area": "富山県",
        "game_id": "109",
        "region_id": "15",
        "store_id": "19601",
        "latitude": "36.8266707",
        "longitude": "137.4139941",
        "map_url": "https://maps.google.com/maps.google.com/maps?q=ゲームスポットアップル"
    },
    {
        "name": "プレイランドイン黒部",
        "address": "富山県黒部市沓掛645",
        "game": "CHUNITHM SUN",
        "area": "富山県",
        "game_id": "109",
        "region_id": "15",
        "store_id": "28311",
        "latitude": "36.8889558",
        "longitude": "137.4644997",
        "map_url": "https://maps.google.com/maps.google.com/maps?q=プレイランドイン黒部"
    },
    {
        "name": "クァトロブーム小杉",
        "address": "富山県射水市三ケ2602",
        "game": "CHUNITHM SUN",
        "area": "富山県",
        "game_id": "109",
        "region_id": "15",
        "store_id": "24187",
        "latitude": "36.71939301410316",
        "longitude": "137.0916633427487",
        "map_url": "https://maps.google.com/maps.google.com/maps?q=クァトロブーム小杉"
    }
]