[
    {
        "name": "SALEM GAME CENTRE",
        "address": "C2 G/F.,FUN CITY, 7LEK YUEN ST.,SHA TIN ,NT.",
        "game": "CHUNITHM International Version",
        "area": "Hong Kong",
        "game_id": "104",
        "region_id": "1002",
        "store_id": "24112",
        "latitude": "22.384135773369003",
        "longitude": "114.19230466622821",
        "map_url": "https://maps.google.com/maps.google.com/maps?q=SALEM GAME CENTRE"
    },
    {
        "name": "IGAME(TAI PO)",
        "address": "B,TAI PO SPORTS ASSOCIATION 2ON CHEUNG RD.,TAI PO,N.T",
        "game": "CHUNITHM International Version",
        "area": "Hong Kong",
        "game_id": "104",
        "region_id": "1002",
        "store_id": "22378",
        "latitude": "22.453709597930793",
        "longitude": "114.16726877255235",
        "map_url": "https://maps.google.com/maps.google.com/maps?q=IGAME(TAI PO)"
    },
    {
        "name": "GOLD STAR(TSUEN WAN)",
        "address": "3F,E WING, NAN FUNG CENTRE, 264-298CASTLE PEAK RD.,TSUEN WAN N.T",
        "game": "CHUNITHM International Version",
        "area": "Hong Kong",
        "game_id": "104",
        "region_id": "1002",
        "store_id": "24723",
        "latitude": "22.37384895354829",
        "longitude": "114.11634806771849",
        "map_url": "https://maps.google.com/maps.google.com/maps?q=GOLD STAR(TSUEN WAN)"
    },
    {
        "name": "POWER CITY(TIN SHUI WAI)",
        "address": "G68-72 G/F,PHASE 1 KINGSWOOD GINZA, TIN SHUI WAI, N.T.",
        "game": "CHUNITHM International Version",
        "area": "Hong Kong",
        "game_id": "104",
        "region_id": "1002",
        "store_id": "20490",
        "latitude": "22.4569941",
        "longitude": "114.0046892",
        "map_url": "https://maps.google.com/maps.google.com/maps?q=POWER CITY(TIN SHUI WAI)"
    },
    {
        "name": "GAMEZONE(KWUN TONG PLAZA)",
        "address": "1/F,KWUN TONG PLAZA,68HOI YUEN ROAD, KWUNTONG, KOWLOON",
        "game": "CHUNITHM International Version",
        "area": "Hong Kong",
        "game_id": "104",
        "region_id": "1002",
        "store_id": "24741",
        "latitude": "22.3111759",
        "longitude": "114.226019",
        "map_url": "https://maps.google.com/maps.google.com/maps?q=GAMEZONE(KWUN TONG PLAZA)"
    },
    {
        "name": "SUPER KING GAME CENTRE",
        "address": "B/F,WEST COAST BLDG, 290-296UN CHAU ST.,CHEUNG SHA WAN,KW",
        "game": "CHUNITHM International Version",
        "area": "Hong Kong",
        "game_id": "104",
        "region_id": "1002",
        "store_id": "24481",
        "latitude": "22.33567930472421",
        "longitude": "114.15912209538442",
        "map_url": "https://maps.google.com/maps.google.com/maps?q=SUPER KING GAME CENTRE"
    },
    {
        "name": "DRAGON CENTRE SHAM SHUI PO",
        "address": "LEVEL9,DRAGON CENTRE,37K YEN CHOW STREET,SHAM SHUI PO,KOWLOON,",
        "game": "CHUNITHM International Version",
        "area": "Hong Kong",
        "game_id": "104",
        "region_id": "1002",
        "store_id": "18721",
        "latitude": "0.0",
        "longitude": "0.0",
        "map_url": "https://maps.google.com/maps.google.com/maps?q=DRAGON CENTRE SHAM SHUI PO"
    },
    {
        "name": "HOLLYWOOD GAME ZONE",
        "address": "383, LEVEL 3, PLAZA HOLLYWOODDIAMOND HILL, KOWLOON,",
        "game": "CHUNITHM International Version",
        "area": "Hong Kong",
        "game_id": "104",
        "region_id": "1002",
        "store_id": "24742",
        "latitude": "22.340705829210233",
        "longitude": "114.20210956108889",
        "map_url": "https://maps.google.com/maps.google.com/maps?q=HOLLYWOOD GAME ZONE"
    },
    {
        "name": "GAMEZONE(MONG KOK)",
        "address": "BF., ARGYLE CENTRE PHASE I,65 ARGYLE ST, MONGKOK, KOWLOON",
        "game": "CHUNITHM International Version",
        "area": "Hong Kong",
        "game_id": "104",
        "region_id": "1002",
        "store_id": "24738",
        "latitude": "22.319519999131476",
        "longitude": "114.17147698678582",
        "map_url": "https://maps.google.com/maps.google.com/maps?q=GAMEZONE(MONG KOK)"
    },
    {
        "name": "GOLDEN ERA GAME CENTRE",
        "address": "2/F, GOLDEN ERA PLAZA, 39SAI YEE STREET, MONGKOK, KOWLOON",
        "game": "CHUNITHM International Version",
        "area": "Hong Kong",
        "game_id": "104",
        "region_id": "1002",
        "store_id": "24735",
        "latitude": "22.318361",
        "longitude": "114.17173",
        "map_url": "https://maps.google.com/maps.google.com/maps?q=GOLDEN ERA GAME CENTRE"
    },
    {
        "name": "SMART GAME(MONG KOK)",
        "address": "1/F & 2/F, NO. 60-104SOY STREET, MONGKOK, KOWLOON,",
        "game": "CHUNITHM International Version",
        "area": "Hong Kong",
        "game_id": "104",
        "region_id": "1002",
        "store_id": "24721",
        "latitude": "22.316904650568752",
        "longitude": "114.17231174508902",
        "map_url": "https://maps.google.com/maps.google.com/maps?q=SMART GAME(MONG KOK)"
    },
    {
        "name": "JUMBO GAME",
        "address": "BASEMENT, 82 OLD MAIN STREET,ABERDEEN, HONG KONG,",
        "game": "CHUNITHM International Version",
        "area": "Hong Kong",
        "game_id": "104",
        "region_id": "1002",
        "store_id": "24718",
        "latitude": "22.24836405873899",
        "longitude": "114.15624415707782",
        "map_url": "https://maps.google.com/maps.google.com/maps?q=JUMBO GAME"
    },
    {
        "name": "SMART GAME(WAN CHAI)",
        "address": "G/F,GREAT SMART TOWER,NO.230 WAN CHAI ROAD,HONG KONG",
        "game": "CHUNITHM International Version",
        "area": "Hong Kong",
        "game_id": "104",
        "region_id": "1002",
        "store_id": "20681",
        "latitude": "22.278089",
        "longitude": "114.178909",
        "map_url": "https://maps.google.com/maps.google.com/maps?q=SMART GAME(WAN CHAI)"
    }
]