[
    {
        "name": "ＧｉＧＯ大阪道頓堀本店",
        "address": "大阪府大阪市中央区道頓堀１丁目８番２２号道頓座ビル１〜３Ｆ",
        "game": "maimai でらっくす",
        "area": "大阪府",
        "game_id": "96",
        "region_id": "26",
        "store_id": "18818",
        "latitude": "34.6684903",
        "longitude": "135.501699",
        "map_url": "https://maps.google.com/maps.google.com/maps?q=ＧｉＧＯ大阪道頓堀本店"
    },
    {
        "name": "タイトーステーション 難波店",
        "address": "大阪府大阪市中央区難波千日前１５−１２",
        "game": "maimai でらっくす",
        "area": "大阪府",
        "game_id": "96",
        "region_id": "26",
        "store_id": "24837",
        "latitude": "34.6633633",
        "longitude": "135.5031909",
        "map_url": "https://maps.google.com/maps.google.com/maps?q=タイトーステーション 難波店"
    },
    {
        "name": "ラウンドワン千日前店",
        "address": "大阪府大阪市中央区難波１−３−１",
        "game": "maimai でらっくす",
        "area": "大阪府",
        "game_id": "96",
        "region_id": "26",
        "store_id": "23049",
        "latitude": "34.6675295",
        "longitude": "135.5027825",
        "map_url": "https://maps.google.com/maps.google.com/maps?q=ラウンドワン千日前店"
    },
    {
        "name": "タイトーステーション大阪日本橋店",
        "address": "大阪府大阪市浪速区日本橋４−９−１４",
        "game": "maimai でらっくす",
        "area": "大阪府",
        "game_id": "96",
        "region_id": "26",
        "store_id": "23077",
        "latitude": "34.66039311243442",
        "longitude": "135.50614555767208",
        "map_url": "https://maps.google.com/maps.google.com/maps?q=タイトーステーション大阪日本橋店"
    },
    {
        "name": "ｎａｍｃｏなんばパークス店",
        "address": "大阪府大阪市浪速区難波中2丁目10番70号なんばﾊﾟｰｸｽ6階",
        "game": "maimai でらっくす",
        "area": "大阪府",
        "game_id": "96",
        "region_id": "26",
        "store_id": "25482",
        "latitude": "34.66161480541797",
        "longitude": "135.50194960370482",
        "map_url": "https://maps.google.com/maps.google.com/maps?q=ｎａｍｃｏなんばパークス店"
    },
    {
        "name": "ＧｉＧＯ難波アビオン",
        "address": "大阪府大阪市浪速区難波中２−３−１５　ＭＭＯビルＢ１Ｆ〜３Ｆ",
        "game": "maimai でらっくす",
        "area": "大阪府",
        "game_id": "96",
        "region_id": "26",
        "store_id": "29226",
        "latitude": "34.66273267087078",
        "longitude": "135.50331120793453",
        "map_url": "https://maps.google.com/maps.google.com/maps?q=ＧｉＧＯ難波アビオン"
    },
    {
        "name": "ｎａｍｃｏ大阪日本橋店",
        "address": "大阪府大阪市浪速区難波中2-1-17コスモビル1〜3階",
        "game": "maimai でらっくす",
        "area": "大阪府",
        "game_id": "96",
        "region_id": "26",
        "store_id": "23940",
        "latitude": "34.6629578",
        "longitude": "135.5043158",
        "map_url": "https://maps.google.com/maps.google.com/maps?q=ｎａｍｃｏ大阪日本橋店"
    },
    {
        "name": "ラウンドワン梅田店",
        "address": "大阪府大阪市北区小松原町４−１６",
        "game": "maimai でらっくす",
        "area": "大阪府",
        "game_id": "96",
        "region_id": "26",
        "store_id": "24146",
        "latitude": "34.703046035336456",
        "longitude": "135.5010681809856",
        "map_url": "https://maps.google.com/maps.google.com/maps?q=ラウンドワン梅田店"
    },
    {
        "name": "ＧｉＧＯ東梅田",
        "address": "大阪府大阪市北区堂山町９−２８",
        "game": "maimai でらっくす",
        "area": "大阪府",
        "game_id": "96",
        "region_id": "26",
        "store_id": "29223",
        "latitude": "34.7031007",
        "longitude": "135.5039563",
        "map_url": "https://maps.google.com/maps.google.com/maps?q=ＧｉＧＯ東梅田"
    },
    {
        "name": "ｎａｍｃｏ梅田店",
        "address": "大阪府大阪市北区小松原町３−３ＯＳビル２Ｆ",
        "game": "maimai でらっくす",
        "area": "大阪府",
        "game_id": "96",
        "region_id": "26",
        "store_id": "26336",
        "latitude": "34.70278151741593",
        "longitude": "135.50039603425444",
        "map_url": "https://maps.google.com/maps.google.com/maps?q=ｎａｍｃｏ梅田店"
    },
    {
        "name": "ＭＦ　ＬＩＮＫＳ　ＵＭＥＤＡ",
        "address": "大阪府大阪市北区大深町４−８ヨドバシカメラＬＩＮＫＳ梅田店内",
        "game": "maimai でらっくす",
        "area": "大阪府",
        "game_id": "96",
        "region_id": "26",
        "store_id": "20000",
        "latitude": "34.7031452",
        "longitude": "135.4947306",
        "map_url": "https://maps.google.com/maps.google.com/maps?q=ＭＦ　ＬＩＮＫＳ　ＵＭＥＤＡ"
    },
    {
        "name": "ＧｉＧＯあべのアポロ３階",
        "address": "大阪府大阪市阿倍野区阿倍野筋１−５−３１アポロビル３Ｆ",
        "game": "maimai でらっくす",
        "area": "大阪府",
        "game_id": "96",
        "region_id": "26",
        "store_id": "29214",
        "latitude": "34.6465681",
        "longitude": "135.5117823",
        "map_url": "https://maps.google.com/maps.google.com/maps?q=ＧｉＧＯあべのアポロ３階"
    },
    {
        "name": "Ｇ−ｐａｌａあべの",
        "address": "大阪府大阪市阿倍野区阿倍野筋３−１０−１あべのベルタ２Ｆ",
        "game": "maimai でらっくす",
        "area": "大阪府",
        "game_id": "96",
        "region_id": "26",
        "store_id": "24785",
        "latitude": "34.64230804215337",
        "longitude": "135.51129129297635",
        "map_url": "https://maps.google.com/maps.google.com/maps?q=Ｇ−ｐａｌａあべの"
    },
    {
        "name": "ラウンドワン城東放出店",
        "address": "大阪府大阪市城東区今福南3-4-38",
        "game": "maimai でらっくす",
        "area": "大阪府",
        "game_id": "96",
        "region_id": "26",
        "store_id": "26066",
        "latitude": "34.6964966",
        "longitude": "135.5593162",
        "map_url": "https://maps.google.com/maps.google.com/maps?q=ラウンドワン城東放出店"
    },
    {
        "name": "ＧｉＧＯ今福",
        "address": "大阪府大阪市城東区今福東１−９−３４",
        "game": "maimai でらっくす",
        "area": "大阪府",
        "game_id": "96",
        "region_id": "26",
        "store_id": "29191",
        "latitude": "34.7009266",
        "longitude": "135.5574414",
        "map_url": "https://maps.google.com/maps.google.com/maps?q=ＧｉＧＯ今福"
    },
    {
        "name": "楽市楽座イオンモール大阪ドーム店",
        "address": "大阪府大阪市西区千代崎３−１３−１",
        "game": "maimai でらっくす",
        "area": "大阪府",
        "game_id": "96",
        "region_id": "26",
        "store_id": "22744",
        "latitude": "34.67087525017763",
        "longitude": "135.4776337507874",
        "map_url": "https://maps.google.com/maps.google.com/maps?q=楽市楽座イオンモール大阪ドーム店"
    },
    {
        "name": "ラウンドワン東淀川店",
        "address": "大阪府大阪市東淀川区菅原７−１４−２８",
        "game": "maimai でらっくす",
        "area": "大阪府",
        "game_id": "96",
        "region_id": "26",
        "store_id": "28633",
        "latitude": "34.7427577",
        "longitude": "135.5250375",
        "map_url": "https://maps.google.com/maps.google.com/maps?q=ラウンドワン東淀川店"
    },
    {
        "name": "ｎａｍｃｏマグスミノエ店",
        "address": "大阪府大阪市住之江区泉１−１−８２マグスミノエ１Ｆ",
        "game": "maimai でらっくす",
        "area": "大阪府",
        "game_id": "96",
        "region_id": "26",
        "store_id": "27033",
        "latitude": "34.609994369342104",
        "longitude": "135.46828803981168",
        "map_url": "https://maps.google.com/maps.google.com/maps?q=ｎａｍｃｏマグスミノエ店"
    },
    {
        "name": "ｎａｍｃｏイオンモール鶴見緑地店",
        "address": "大阪府大阪市鶴見区鶴見４−１７−１鶴見緑地４階",
        "game": "maimai でらっくす",
        "area": "大阪府",
        "game_id": "96",
        "region_id": "26",
        "store_id": "25484",
        "latitude": "34.704187719185114",
        "longitude": "135.56682731111448",
        "map_url": "https://maps.google.com/maps.google.com/maps?q=ｎａｍｃｏイオンモール鶴見緑地店"
    },
    {
        "name": "ＧｉＧＯ布施",
        "address": "大阪府東大阪市長堂１−１−１ロンモール布施内",
        "game": "maimai でらっくす",
        "area": "大阪府",
        "game_id": "96",
        "region_id": "26",
        "store_id": "29225",
        "latitude": "34.66411101292697",
        "longitude": "135.5627448728775",
        "map_url": "https://maps.google.com/maps.google.com/maps?q=ＧｉＧＯ布施"
    },
    {
        "name": "ラウンドワン東大阪店",
        "address": "大阪府東大阪市若江南町１−２−１２",
        "game": "maimai でらっくす",
        "area": "大阪府",
        "game_id": "96",
        "region_id": "26",
        "store_id": "28652",
        "latitude": "34.6530441",
        "longitude": "135.6063264",
        "map_url": "https://maps.google.com/maps.google.com/maps?q=ラウンドワン東大阪店"
    },
    {
        "name": "ＧｉＧＯフレスポ東大阪",
        "address": "大阪府東大阪市稲田新町３−９−６４",
        "game": "maimai でらっくす",
        "area": "大阪府",
        "game_id": "96",
        "region_id": "26",
        "store_id": "24287",
        "latitude": "34.69079425884676",
        "longitude": "135.59131876878655",
        "map_url": "https://maps.google.com/maps.google.com/maps?q=ＧｉＧＯフレスポ東大阪"
    },
    {
        "name": "トップラン東大阪店",
        "address": "大阪府東大阪市東鴻池町１−６−３０イオンタウン東大阪店２Ｆ",
        "game": "maimai でらっくす",
        "area": "大阪府",
        "game_id": "96",
        "region_id": "26",
        "store_id": "21189",
        "latitude": "34.6938172",
        "longitude": "135.6175909",
        "map_url": "https://maps.google.com/maps.google.com/maps?q=トップラン東大阪店"
    },
    {
        "name": "ラウンドワン守口店",
        "address": "大阪府守口市佐太東町２−６−１４ジャガーグリーン２Ｆ",
        "game": "maimai でらっくす",
        "area": "大阪府",
        "game_id": "96",
        "region_id": "26",
        "store_id": "28662",
        "latitude": "34.75609546229841",
        "longitude": "135.5885314463104",
        "map_url": "https://maps.google.com/maps.google.com/maps?q=ラウンドワン守口店"
    },
    {
        "name": "ｎａｍｃｏイオンモール大日店",
        "address": "大阪府守口市大日東町1番地18号ｲｵﾝﾓｰﾙ大日4階",
        "game": "maimai でらっくす",
        "area": "大阪府",
        "game_id": "96",
        "region_id": "26",
        "store_id": "25483",
        "latitude": "34.7486883",
        "longitude": "135.5802852",
        "map_url": "https://maps.google.com/maps.google.com/maps?q=ｎａｍｃｏイオンモール大日店"
    },
    {
        "name": "関大前フタバボウル",
        "address": "大阪府吹田市千里山東１−７−１８",
        "game": "maimai でらっくす",
        "area": "大阪府",
        "game_id": "96",
        "region_id": "26",
        "store_id": "26497",
        "latitude": "34.7728868",
        "longitude": "135.5062606",
        "map_url": "https://maps.google.com/maps.google.com/maps?q=関大前フタバボウル"
    },
    {
        "name": "ENTERTAINMENT FIELD ららぽーとEXPOCITY店",
        "address": "大阪府吹田市千里万博公園２−１ららぽーとＥＸＰＯＣＩＴＹ３Ｆ",
        "game": "maimai でらっくす",
        "area": "大阪府",
        "game_id": "96",
        "region_id": "26",
        "store_id": "21211",
        "latitude": "34.8054029",
        "longitude": "135.5354552",
        "map_url": "https://maps.google.com/maps.google.com/maps?q=ENTERTAINMENT FIELD ららぽーとEXPOCITY店"
    },
    {
        "name": "トムソーヤのなかまたち岸和田店",
        "address": "大阪府岸和田市港緑町2-1岸和田ｶﾝｶﾝﾍﾞｲｻｲﾄﾞﾓｰﾙEAST棟2階",
        "game": "maimai でらっくす",
        "area": "大阪府",
        "game_id": "96",
        "region_id": "26",
        "store_id": "20376",
        "latitude": "34.4667195",
        "longitude": "135.3713761",
        "map_url": "https://maps.google.com/maps.google.com/maps?q=トムソーヤのなかまたち岸和田店"
    },
    {
        "name": "星狩物語岸和田店",
        "address": "大阪府岸和田市作才町1-3-2",
        "game": "maimai でらっくす",
        "area": "大阪府",
        "game_id": "96",
        "region_id": "26",
        "store_id": "28392",
        "latitude": "34.4544936",
        "longitude": "135.3850002",
        "map_url": "https://maps.google.com/maps.google.com/maps?q=星狩物語岸和田店"
    },
    {
        "name": "ラウンドワン岸和田店",
        "address": "大阪府岸和田市八阪町２−１１−１",
        "game": "maimai でらっくす",
        "area": "大阪府",
        "game_id": "96",
        "region_id": "26",
        "store_id": "24775",
        "latitude": "34.4565318",
        "longitude": "135.3885664",
        "map_url": "https://maps.google.com/maps.google.com/maps?q=ラウンドワン岸和田店"
    },
    {
        "name": "ゲームパニック堺",
        "address": "大阪府堺市堺区築港八幡町1番地堺浜ｼｰｻｲﾄﾞｽﾃｰｼﾞ内堺浜ｴﾝﾀﾒ館",
        "game": "maimai でらっくす",
        "area": "大阪府",
        "game_id": "96",
        "region_id": "26",
        "store_id": "25758",
        "latitude": "34.597827130156965",
        "longitude": "135.44725586693426",
        "map_url": "https://maps.google.com/maps.google.com/maps?q=ゲームパニック堺"
    },
    {
        "name": "SOYU GAME FIELD堺鉄砲町店",
        "address": "大阪府堺市堺区鉄砲町1番地イオンモール堺鉄砲町3F",
        "game": "maimai でらっくす",
        "area": "大阪府",
        "game_id": "96",
        "region_id": "26",
        "store_id": "21081",
        "latitude": "34.59404633945432",
        "longitude": "135.48120863942563",
        "map_url": "https://maps.google.com/maps.google.com/maps?q=SOYU GAME FIELD堺鉄砲町店"
    },
    {
        "name": "ラウンドワン堺駅前店",
        "address": "大阪府堺市堺区戎島町4-44-3",
        "game": "maimai でらっくす",
        "area": "大阪府",
        "game_id": "96",
        "region_id": "26",
        "store_id": "25956",
        "latitude": "34.5834551",
        "longitude": "135.4684377",
        "map_url": "https://maps.google.com/maps.google.com/maps?q=ラウンドワン堺駅前店"
    },
    {
        "name": "ｎａｍｃｏアリオ鳳店",
        "address": "大阪府堺市西区鳳南町３−１９９−１２アリオ鳳アリオモール３Ｆ",
        "game": "maimai でらっくす",
        "area": "大阪府",
        "game_id": "96",
        "region_id": "26",
        "store_id": "24976",
        "latitude": "34.524785321431544",
        "longitude": "135.45933983809812",
        "map_url": "https://maps.google.com/maps.google.com/maps?q=ｎａｍｃｏアリオ鳳店"
    },
    {
        "name": "ラウンドワン堺中央環状店",
        "address": "大阪府堺市東区石原町２−２４１",
        "game": "maimai でらっくす",
        "area": "大阪府",
        "game_id": "96",
        "region_id": "26",
        "store_id": "26271",
        "latitude": "34.5569759",
        "longitude": "135.5365126",
        "map_url": "https://maps.google.com/maps.google.com/maps?q=ラウンドワン堺中央環状店"
    },
    {
        "name": "ラウンドワン高槻店",
        "address": "大阪府高槻市辻子３−６−４",
        "game": "maimai でらっくす",
        "area": "大阪府",
        "game_id": "96",
        "region_id": "26",
        "store_id": "26366",
        "latitude": "34.8326157",
        "longitude": "135.6300541",
        "map_url": "https://maps.google.com/maps.google.com/maps?q=ラウンドワン高槻店"
    },
    {
        "name": "タイトーＦステーション摂津富田店",
        "address": "大阪府高槻市大畑町１３−１　イオン摂津富田店２階",
        "game": "maimai でらっくす",
        "area": "大阪府",
        "game_id": "96",
        "region_id": "26",
        "store_id": "20194",
        "latitude": "34.8374982",
        "longitude": "135.5894744",
        "map_url": "https://maps.google.com/maps.google.com/maps?q=タイトーＦステーション摂津富田店"
    },
    {
        "name": "ゲームフェイス八尾店",
        "address": "大阪府八尾市天王寺屋2-68",
        "game": "maimai でらっくす",
        "area": "大阪府",
        "game_id": "96",
        "region_id": "26",
        "store_id": "28528",
        "latitude": "34.6039833",
        "longitude": "135.6123516",
        "map_url": "https://maps.google.com/maps.google.com/maps?q=ゲームフェイス八尾店"
    },
    {
        "name": "タイトーステーション アリオ八尾店",
        "address": "大阪府八尾市光町２−３　イトーヨーカドーアリオ八尾３Ｆ",
        "game": "maimai でらっくす",
        "area": "大阪府",
        "game_id": "96",
        "region_id": "26",
        "store_id": "25299",
        "latitude": "34.63250804286744",
        "longitude": "135.60575982698367",
        "map_url": "https://maps.google.com/maps.google.com/maps?q=タイトーステーション アリオ八尾店"
    },
    {
        "name": "ＧｉＧＯ新三国アルゴ７",
        "address": "大阪府豊中市神州町１−１５",
        "game": "maimai でらっくす",
        "area": "大阪府",
        "game_id": "96",
        "region_id": "26",
        "store_id": "22698",
        "latitude": "34.7386679",
        "longitude": "135.4794168",
        "map_url": "https://maps.google.com/maps.google.com/maps?q=ＧｉＧＯ新三国アルゴ７"
    },
    {
        "name": "ラウンドワン豊中店",
        "address": "大阪府豊中市名神口１−１−１",
        "game": "maimai でらっくす",
        "area": "大阪府",
        "game_id": "96",
        "region_id": "26",
        "store_id": "28665",
        "latitude": "34.75740264190711",
        "longitude": "135.46565781904906",
        "map_url": "https://maps.google.com/maps.google.com/maps?q=ラウンドワン豊中店"
    },
    {
        "name": "ＧｉＧＯ枚方",
        "address": "大阪府枚方市須山町８３−１サンシャインプラザ枚方内",
        "game": "maimai でらっくす",
        "area": "大阪府",
        "game_id": "96",
        "region_id": "26",
        "store_id": "29190",
        "latitude": "34.8196428",
        "longitude": "135.6755727",
        "map_url": "https://maps.google.com/maps.google.com/maps?q=ＧｉＧＯ枚方"
    },
    {
        "name": "ラウンドワン枚方店",
        "address": "大阪府枚方市高野道１−２０−２０",
        "game": "maimai でらっくす",
        "area": "大阪府",
        "game_id": "96",
        "region_id": "26",
        "store_id": "25780",
        "latitude": "34.8432521",
        "longitude": "135.6986977",
        "map_url": "https://maps.google.com/maps.google.com/maps?q=ラウンドワン枚方店"
    },
    {
        "name": "モンキートリック",
        "address": "大阪府寝屋川市香里南之町32-5　YNレジデンス香里2F",
        "game": "maimai でらっくす",
        "area": "大阪府",
        "game_id": "96",
        "region_id": "26",
        "store_id": "26996",
        "latitude": "34.78347534235498",
        "longitude": "135.62886255952458",
        "map_url": "https://maps.google.com/maps.google.com/maps?q=モンキートリック"
    },
    {
        "name": "ＧｉＧＯビバモール寝屋川",
        "address": "大阪府寝屋川市寝屋南２−２２−２ビバモール寝屋川モール棟２Ｆ",
        "game": "maimai でらっくす",
        "area": "大阪府",
        "game_id": "96",
        "region_id": "26",
        "store_id": "24005",
        "latitude": "34.76577203960182",
        "longitude": "135.65065356931154",
        "map_url": "https://maps.google.com/maps.google.com/maps?q=ＧｉＧＯビバモール寝屋川"
    },
    {
        "name": "ＹＡＺ寝屋川店",
        "address": "大阪府寝屋川市石津中町25-26",
        "game": "maimai でらっくす",
        "area": "大阪府",
        "game_id": "96",
        "region_id": "26",
        "store_id": "23199",
        "latitude": "34.7802772",
        "longitude": "135.6194363",
        "map_url": "https://maps.google.com/maps.google.com/maps?q=ＹＡＺ寝屋川店"
    },
    {
        "name": "アミパラ大東店",
        "address": "大阪府大東市南新田２丁目３番５号",
        "game": "maimai でらっくす",
        "area": "大阪府",
        "game_id": "96",
        "region_id": "26",
        "store_id": "20132",
        "latitude": "34.70113630657272",
        "longitude": "135.63859696322936",
        "map_url": "https://maps.google.com/maps.google.com/maps?q=アミパラ大東店"
    },
    {
        "name": "あそＶＩＶＡ阪急茨木店",
        "address": "大阪府茨木市永代町６−２スポーツプラザ茨木２Ｆ",
        "game": "maimai でらっくす",
        "area": "大阪府",
        "game_id": "96",
        "region_id": "26",
        "store_id": "19973",
        "latitude": "34.8179736",
        "longitude": "135.5763883",
        "map_url": "https://maps.google.com/maps.google.com/maps?q=あそＶＩＶＡ阪急茨木店"
    },
    {
        "name": "ゲームディーノ阪急茨木店",
        "address": "大阪府茨木市永代町５ ソシオビルＢ１",
        "game": "maimai でらっくす",
        "area": "大阪府",
        "game_id": "96",
        "region_id": "26",
        "store_id": "22922",
        "latitude": "34.8175163",
        "longitude": "135.5756095",
        "map_url": "https://maps.google.com/maps.google.com/maps?q=ゲームディーノ阪急茨木店"
    },
    {
        "name": "ＦｅｅｄｙＡ茨木",
        "address": "大阪府茨木市松ケ本町８−３０−５　イオンＳＣ４Ｆ",
        "game": "maimai でらっくす",
        "area": "大阪府",
        "game_id": "96",
        "region_id": "26",
        "store_id": "25734",
        "latitude": "34.810615223375024",
        "longitude": "135.55853846137688",
        "map_url": "https://maps.google.com/maps.google.com/maps?q=ＦｅｅｄｙＡ茨木"
    },
    {
        "name": "SOYUGameFieldみのおキューズモール店",
        "address": "大阪府箕面市西宿１−１５−３０みのおキューズモールＣ棟２階",
        "game": "maimai でらっくす",
        "area": "大阪府",
        "game_id": "96",
        "region_id": "26",
        "store_id": "19756",
        "latitude": "34.8330133",
        "longitude": "135.4894015",
        "map_url": "https://maps.google.com/maps.google.com/maps?q=SOYUGameFieldみのおキューズモール店"
    },
    {
        "name": "ＧｉＧＯ和泉",
        "address": "大阪府和泉市肥子町２−４−４１",
        "game": "maimai でらっくす",
        "area": "大阪府",
        "game_id": "96",
        "region_id": "26",
        "store_id": "27069",
        "latitude": "34.4867343",
        "longitude": "135.4180002",
        "map_url": "https://maps.google.com/maps.google.com/maps?q=ＧｉＧＯ和泉"
    },
    {
        "name": "アミパラ光明池店",
        "address": "大阪府和泉市室堂町８２４−３６",
        "game": "maimai でらっくす",
        "area": "大阪府",
        "game_id": "96",
        "region_id": "26",
        "store_id": "19412",
        "latitude": "34.4717247",
        "longitude": "135.4765921",
        "map_url": "https://maps.google.com/maps.google.com/maps?q=アミパラ光明池店"
    },
    {
        "name": "ラウンドワンららぽーと和泉店",
        "address": "大阪府和泉市あゆみ野４−４−７　４階　４２１００番",
        "game": "maimai でらっくす",
        "area": "大阪府",
        "game_id": "96",
        "region_id": "26",
        "store_id": "21598",
        "latitude": "34.4356803",
        "longitude": "135.4479088",
        "map_url": "https://maps.google.com/maps.google.com/maps?q=ラウンドワンららぽーと和泉店"
    },
    {
        "name": "プラサカプコン藤井寺",
        "address": "大阪府藤井寺市岡２丁目１０番１１号イオン藤井寺ＳＣ２Ｆ",
        "game": "maimai でらっくす",
        "area": "大阪府",
        "game_id": "96",
        "region_id": "26",
        "store_id": "20026",
        "latitude": "34.5739493",
        "longitude": "135.5931971",
        "map_url": "https://maps.google.com/maps.google.com/maps?q=プラサカプコン藤井寺"
    },
    {
        "name": "フタバボウル泉大津店",
        "address": "大阪府泉大津市松之浜町１−２−５３",
        "game": "maimai でらっくす",
        "area": "大阪府",
        "game_id": "96",
        "region_id": "26",
        "store_id": "25435",
        "latitude": "34.51085831847596",
        "longitude": "135.4156271981476",
        "map_url": "https://maps.google.com/maps.google.com/maps?q=フタバボウル泉大津店"
    },
    {
        "name": "ソユーゲームフィールド泉南店",
        "address": "大阪府泉南市りんくう南浜３番１２イオンモールりんくう泉南２Ｆ",
        "game": "maimai でらっくす",
        "area": "大阪府",
        "game_id": "96",
        "region_id": "26",
        "store_id": "26410",
        "latitude": "34.3817902749917",
        "longitude": "135.268921992096",
        "map_url": "https://maps.google.com/maps.google.com/maps?q=ソユーゲームフィールド泉南店"
    },
    {
        "name": "ストライクス",
        "address": "大阪府泉南市馬場778",
        "game": "maimai でらっくす",
        "area": "大阪府",
        "game_id": "96",
        "region_id": "26",
        "store_id": "23228",
        "latitude": "34.36213317224351",
        "longitude": "135.27378686679538",
        "map_url": "https://maps.google.com/maps.google.com/maps?q=ストライクス"
    },
    {
        "name": "タイトーFステーションりんくうシークル店",
        "address": "大阪府泉佐野市りんくう往来南３",
        "game": "maimai でらっくす",
        "area": "大阪府",
        "game_id": "96",
        "region_id": "26",
        "store_id": "20059",
        "latitude": "34.4100218",
        "longitude": "135.2986529",
        "map_url": "https://maps.google.com/maps.google.com/maps?q=タイトーFステーションりんくうシークル店"
    },
    {
        "name": "楽市楽座イオンモール四條畷店",
        "address": "大阪府四條畷市砂4-3-2イオンモール四條畷店3F",
        "game": "maimai でらっくす",
        "area": "大阪府",
        "game_id": "96",
        "region_id": "26",
        "store_id": "21202",
        "latitude": "34.7463611",
        "longitude": "135.6292494",
        "map_url": "https://maps.google.com/maps.google.com/maps?q=楽市楽座イオンモール四條畷店"
    }
]