[
    {
        "name": "アミューズメントパークＭＧキスケ",
        "address": "愛媛県松山市宮田町４　キスケボックス内１階",
        "game": "maimai でらっくす",
        "area": "愛媛県",
        "game_id": "96",
        "region_id": "37",
        "store_id": "28673",
        "latitude": "33.84135984349505",
        "longitude": "132.7528734931152",
        "map_url": "https://maps.google.com/maps.google.com/maps?q=アミューズメントパークＭＧキスケ"
    },
    {
        "name": "宮西スタジアム２",
        "address": "愛媛県松山市宮西二丁目４の４１",
        "game": "maimai でらっくす",
        "area": "愛媛県",
        "game_id": "96",
        "region_id": "37",
        "store_id": "28280",
        "latitude": "33.8485225",
        "longitude": "132.7514682",
        "map_url": "https://maps.google.com/maps.google.com/maps?q=宮西スタジアム２"
    },
    {
        "name": "アミューズメントパークＭＧ大街道",
        "address": "愛媛県松山市大街道１−４−１７",
        "game": "maimai でらっくす",
        "area": "愛媛県",
        "game_id": "96",
        "region_id": "37",
        "store_id": "22420",
        "latitude": "33.8378938",
        "longitude": "132.7698832",
        "map_url": "https://maps.google.com/maps.google.com/maps?q=アミューズメントパークＭＧ大街道"
    },
    {
        "name": "ＧｉＧＯ松山",
        "address": "愛媛県松山市枝松５−７−３２",
        "game": "maimai でらっくす",
        "area": "愛媛県",
        "game_id": "96",
        "region_id": "37",
        "store_id": "29157",
        "latitude": "33.828259768436276",
        "longitude": "132.78650301412085",
        "map_url": "https://maps.google.com/maps.google.com/maps?q=ＧｉＧＯ松山"
    },
    {
        "name": "バンバン衣山店",
        "address": "愛媛県松山市衣山１−２４８−１",
        "game": "maimai でらっくす",
        "area": "愛媛県",
        "game_id": "96",
        "region_id": "37",
        "store_id": "24945",
        "latitude": "33.8524719",
        "longitude": "132.7457465",
        "map_url": "https://maps.google.com/maps.google.com/maps?q=バンバン衣山店"
    },
    {
        "name": "アミパラ松山店",
        "address": "愛媛県松山市生石町６５５−１",
        "game": "maimai でらっくす",
        "area": "愛媛県",
        "game_id": "96",
        "region_id": "37",
        "store_id": "24457",
        "latitude": "33.83367993228401",
        "longitude": "132.74499599325407",
        "map_url": "https://maps.google.com/maps.google.com/maps?q=アミパラ松山店"
    },
    {
        "name": "ラウンドワン松山店",
        "address": "愛媛県松山市東長戸１−３−１０",
        "game": "maimai でらっくす",
        "area": "愛媛県",
        "game_id": "96",
        "region_id": "37",
        "store_id": "24294",
        "latitude": "33.8665121",
        "longitude": "132.7515765",
        "map_url": "https://maps.google.com/maps.google.com/maps?q=ラウンドワン松山店"
    },
    {
        "name": "タイトーＦステーション今治ワールドプラザ",
        "address": "愛媛県今治市東村１の１４の２今治ワールドプラザ内",
        "game": "maimai でらっくす",
        "area": "愛媛県",
        "game_id": "96",
        "region_id": "37",
        "store_id": "22692",
        "latitude": "34.042681",
        "longitude": "133.027878",
        "map_url": "https://maps.google.com/maps.google.com/maps?q=タイトーＦステーション今治ワールドプラザ"
    },
    {
        "name": "ＧｉＧＯそよら今治馬越",
        "address": "愛媛県今治市馬越町４ー８ー１",
        "game": "maimai でらっくす",
        "area": "愛媛県",
        "game_id": "96",
        "region_id": "37",
        "store_id": "18750",
        "latitude": "34.0561961",
        "longitude": "132.979816",
        "map_url": "https://maps.google.com/maps.google.com/maps?q=ＧｉＧＯそよら今治馬越"
    },
    {
        "name": "楽市楽座イオンモール今治店",
        "address": "愛媛県今治市にぎわい広場1-1",
        "game": "maimai でらっくす",
        "area": "愛媛県",
        "game_id": "96",
        "region_id": "37",
        "store_id": "21024",
        "latitude": "34.04410918476497",
        "longitude": "132.9619560095398",
        "map_url": "https://maps.google.com/maps.google.com/maps?q=楽市楽座イオンモール今治店"
    },
    {
        "name": "プラサカプコン新居浜店",
        "address": "愛媛県新居浜市前田町８−８イオンモール新居浜２Ｆ",
        "game": "maimai でらっくす",
        "area": "愛媛県",
        "game_id": "96",
        "region_id": "37",
        "store_id": "25997",
        "latitude": "33.9537705",
        "longitude": "133.2688546",
        "map_url": "https://maps.google.com/maps.google.com/maps?q=プラサカプコン新居浜店"
    },
    {
        "name": "ふぇすたらんど新居浜店",
        "address": "愛媛県新居浜市上泉町１２−１",
        "game": "maimai でらっくす",
        "area": "愛媛県",
        "game_id": "96",
        "region_id": "37",
        "store_id": "19986",
        "latitude": "33.936321",
        "longitude": "133.3106012",
        "map_url": "https://maps.google.com/maps.google.com/maps?q=ふぇすたらんど新居浜店"
    },
    {
        "name": "ソユーフォレストハンター松前店",
        "address": "愛媛県伊予郡松前町筒井８５０ＡＭ棟１階",
        "game": "maimai でらっくす",
        "area": "愛媛県",
        "game_id": "96",
        "region_id": "37",
        "store_id": "24962",
        "latitude": "33.78786768438804",
        "longitude": "132.71486522312262",
        "map_url": "https://maps.google.com/maps.google.com/maps?q=ソユーフォレストハンター松前店"
    }
]