[
    {
        "name": "ｎａｍｃｏフェドラＰ＆Ｄ佐野店",
        "address": "栃木県佐野市高萩町１３４０",
        "game": "maimai でらっくす",
        "area": "栃木県",
        "game_id": "96",
        "region_id": "8",
        "store_id": "25543",
        "latitude": "36.2973133",
        "longitude": "139.6056474",
        "map_url": "https://maps.google.com/maps.google.com/maps?q=ｎａｍｃｏフェドラＰ＆Ｄ佐野店"
    },
    {
        "name": "シーサイドリゾートアミューズメントパーク",
        "address": "栃木県宇都宮市睦町７−３",
        "game": "maimai でらっくす",
        "area": "栃木県",
        "game_id": "96",
        "region_id": "8",
        "store_id": "28500",
        "latitude": "36.5632663",
        "longitude": "139.8603778",
        "map_url": "https://maps.google.com/maps.google.com/maps?q=シーサイドリゾートアミューズメントパーク"
    },
    {
        "name": "ＧｉＧＯ宇都宮",
        "address": "栃木県宇都宮市東宿郷５−１−７",
        "game": "maimai でらっくす",
        "area": "栃木県",
        "game_id": "96",
        "region_id": "8",
        "store_id": "29351",
        "latitude": "36.5583104",
        "longitude": "139.9088155",
        "map_url": "https://maps.google.com/maps.google.com/maps?q=ＧｉＧＯ宇都宮"
    },
    {
        "name": "ｎａｍｃｏ宇都宮店",
        "address": "栃木県宇都宮市簗瀬町１６０６−１　Ｐ＆Ｄビル",
        "game": "maimai でらっくす",
        "area": "栃木県",
        "game_id": "96",
        "region_id": "8",
        "store_id": "28887",
        "latitude": "36.5438973",
        "longitude": "139.8915485",
        "map_url": "https://maps.google.com/maps.google.com/maps?q=ｎａｍｃｏ宇都宮店"
    },
    {
        "name": "スタジオプリモ宇都宮店",
        "address": "栃木県宇都宮市曲師町2-8宇都宮フェスタ1F",
        "game": "maimai でらっくす",
        "area": "栃木県",
        "game_id": "96",
        "region_id": "8",
        "store_id": "20733",
        "latitude": "36.5603923",
        "longitude": "139.884618",
        "map_url": "https://maps.google.com/maps.google.com/maps?q=スタジオプリモ宇都宮店"
    },
    {
        "name": "タイトーステーション 宇都宮ベルモール店",
        "address": "栃木県宇都宮市陽東６−２−１ベルモール内２Ｆ",
        "game": "maimai でらっくす",
        "area": "栃木県",
        "game_id": "96",
        "region_id": "8",
        "store_id": "26472",
        "latitude": "36.55602815330737",
        "longitude": "139.9281451079346",
        "map_url": "https://maps.google.com/maps.google.com/maps?q=タイトーステーション 宇都宮ベルモール店"
    },
    {
        "name": "ラウンドワン宇都宮店",
        "address": "栃木県宇都宮市江曽島町２０７２−１",
        "game": "maimai でらっくす",
        "area": "栃木県",
        "game_id": "96",
        "region_id": "8",
        "store_id": "25900",
        "latitude": "36.5406864",
        "longitude": "139.8868934",
        "map_url": "https://maps.google.com/maps.google.com/maps?q=ラウンドワン宇都宮店"
    },
    {
        "name": "テクモピアパルテロン宇都宮店",
        "address": "栃木県宇都宮市今泉町２３７福田屋ＳＰ宇都宮２Ｆ",
        "game": "maimai でらっくす",
        "area": "栃木県",
        "game_id": "96",
        "region_id": "8",
        "store_id": "25312",
        "latitude": "36.574274015333216",
        "longitude": "139.9005652632294",
        "map_url": "https://maps.google.com/maps.google.com/maps?q=テクモピアパルテロン宇都宮店"
    },
    {
        "name": "INTER PARK+1宇都宮",
        "address": "栃木県宇都宮市インターパーク６−５−１",
        "game": "maimai でらっくす",
        "area": "栃木県",
        "game_id": "96",
        "region_id": "8",
        "store_id": "26849",
        "latitude": "36.4881173",
        "longitude": "139.905569",
        "map_url": "https://maps.google.com/maps.google.com/maps?q=INTER PARK+1宇都宮"
    },
    {
        "name": "TFSトナリエ宇都宮",
        "address": "栃木県宇都宮市駅前通り１丁目４番６号トナリエ宇都宮",
        "game": "maimai でらっくす",
        "area": "栃木県",
        "game_id": "96",
        "region_id": "8",
        "store_id": "21227",
        "latitude": "36.56046432398651",
        "longitude": "139.8969966294478",
        "map_url": "https://maps.google.com/maps.google.com/maps?q=TFSトナリエ宇都宮"
    },
    {
        "name": "ファンタジーランドガルー宇都宮店",
        "address": "栃木県宇都宮市江曽島本町22-7アピタ宇都宮店2Ｆ",
        "game": "maimai でらっくす",
        "area": "栃木県",
        "game_id": "96",
        "region_id": "8",
        "store_id": "23517",
        "latitude": "36.5315924",
        "longitude": "139.8669094",
        "map_url": "https://maps.google.com/maps.google.com/maps?q=ファンタジーランドガルー宇都宮店"
    },
    {
        "name": "タイトーＦステーション小山店",
        "address": "栃木県小山市喜沢1475ハーヴェストウォーク内スポーツシネマ棟",
        "game": "maimai でらっくす",
        "area": "栃木県",
        "game_id": "96",
        "region_id": "8",
        "store_id": "22431",
        "latitude": "36.33614382544548",
        "longitude": "139.80737963572085",
        "map_url": "https://maps.google.com/maps.google.com/maps?q=タイトーＦステーション小山店"
    },
    {
        "name": "ＧｉＧＯ小山",
        "address": "栃木県小山市東城南１−１−１８",
        "game": "maimai でらっくす",
        "area": "栃木県",
        "game_id": "96",
        "region_id": "8",
        "store_id": "29342",
        "latitude": "36.2989766",
        "longitude": "139.8101635",
        "map_url": "https://maps.google.com/maps.google.com/maps?q=ＧｉＧＯ小山"
    },
    {
        "name": "アピナ小山店",
        "address": "栃木県小山市駅南町４−２７−１８",
        "game": "maimai でらっくす",
        "area": "栃木県",
        "game_id": "96",
        "region_id": "8",
        "store_id": "24575",
        "latitude": "36.30040103988819",
        "longitude": "139.80912381163944",
        "map_url": "https://maps.google.com/maps.google.com/maps?q=アピナ小山店"
    },
    {
        "name": "ＫＯＫＡＤＯタウン小山店",
        "address": "栃木県小山市中久喜1467-1ｲｵﾝﾓｰﾙ小山店2F",
        "game": "maimai でらっくす",
        "area": "栃木県",
        "game_id": "96",
        "region_id": "8",
        "store_id": "22728",
        "latitude": "36.32207656974469",
        "longitude": "139.84096613068846",
        "map_url": "https://maps.google.com/maps.google.com/maps?q=ＫＯＫＡＤＯタウン小山店"
    },
    {
        "name": "ＧＡＭＥ　ＧＥＴーＢｅｅ　ＶＡＬ小山店",
        "address": "栃木県小山市城山町３丁目３番地２２号",
        "game": "maimai でらっくす",
        "area": "栃木県",
        "game_id": "96",
        "region_id": "8",
        "store_id": "18929",
        "latitude": "36.3126948",
        "longitude": "139.8066084",
        "map_url": "https://maps.google.com/maps.google.com/maps?q=ＧＡＭＥ　ＧＥＴーＢｅｅ　ＶＡＬ小山店"
    },
    {
        "name": "ＧｉＧＯ日光",
        "address": "栃木県日光市芹沼１４４８−１",
        "game": "maimai でらっくす",
        "area": "栃木県",
        "game_id": "96",
        "region_id": "8",
        "store_id": "29088",
        "latitude": "36.74109486411821",
        "longitude": "139.7101396613075",
        "map_url": "https://maps.google.com/maps.google.com/maps?q=ＧｉＧＯ日光"
    },
    {
        "name": "ドラマ足利店",
        "address": "栃木県足利市朝倉町244-1",
        "game": "maimai でらっくす",
        "area": "栃木県",
        "game_id": "96",
        "region_id": "8",
        "store_id": "25770",
        "latitude": "36.32249071212465",
        "longitude": "139.45034310000005",
        "map_url": "https://maps.google.com/maps.google.com/maps?q=ドラマ足利店"
    },
    {
        "name": "アドアーズアシコタウンあしかが",
        "address": "栃木県足利市大月町３番地２　アシコタウンあしかが",
        "game": "maimai でらっくす",
        "area": "栃木県",
        "game_id": "96",
        "region_id": "8",
        "store_id": "19644",
        "latitude": "36.33664",
        "longitude": "139.4779066",
        "map_url": "https://maps.google.com/maps.google.com/maps?q=アドアーズアシコタウンあしかが"
    },
    {
        "name": "大田原スポーツランド",
        "address": "栃木県那須塩原市一区町１０４−６０",
        "game": "maimai でらっくす",
        "area": "栃木県",
        "game_id": "96",
        "region_id": "8",
        "store_id": "26674",
        "latitude": "36.8519301",
        "longitude": "139.993356",
        "map_url": "https://maps.google.com/maps.google.com/maps?q=大田原スポーツランド"
    },
    {
        "name": "ＧｉＧＯ西那須野",
        "address": "栃木県那須塩原市南郷屋２−１０６−２７",
        "game": "maimai でらっくす",
        "area": "栃木県",
        "game_id": "96",
        "region_id": "8",
        "store_id": "29090",
        "latitude": "36.895119",
        "longitude": "139.9822381",
        "map_url": "https://maps.google.com/maps.google.com/maps?q=ＧｉＧＯ西那須野"
    },
    {
        "name": "ＰＡＬＯ石橋",
        "address": "栃木県下野市下古山３３６２−１ヨークタウン",
        "game": "maimai でらっくす",
        "area": "栃木県",
        "game_id": "96",
        "region_id": "8",
        "store_id": "26431",
        "latitude": "36.468733",
        "longitude": "139.8693837",
        "map_url": "https://maps.google.com/maps.google.com/maps?q=ＰＡＬＯ石橋"
    },
    {
        "name": "アピナ宇都宮店",
        "address": "栃木県河内郡上三川町磯岡４２１ー１ジョイフル本田宇都宮店２階",
        "game": "maimai でらっくす",
        "area": "栃木県",
        "game_id": "96",
        "region_id": "8",
        "store_id": "18857",
        "latitude": "36.4801944",
        "longitude": "139.9082222",
        "map_url": "https://maps.google.com/maps.google.com/maps?q=アピナ宇都宮店"
    }
]