[
    {
        "name": "ラウンドワン池袋店",
        "address": "東京都豊島区東池袋１−１４−１",
        "game": "maimai でらっくす",
        "area": "東京都",
        "game_id": "96",
        "region_id": "12",
        "store_id": "22899",
        "latitude": "35.73013524529164",
        "longitude": "139.71520489203067",
        "map_url": "https://maps.google.com/maps.google.com/maps?q=ラウンドワン池袋店"
    },
    {
        "name": "ＧｉＧＯ総本店",
        "address": "東京都豊島区東池袋一丁目１３番６号",
        "game": "maimai でらっくす",
        "area": "東京都",
        "game_id": "96",
        "region_id": "12",
        "store_id": "19064",
        "latitude": "35.7295307",
        "longitude": "139.7147102",
        "map_url": "https://maps.google.com/maps.google.com/maps?q=ＧｉＧＯ総本店"
    },
    {
        "name": "ｎａｍｃｏ池袋店ＲＥＤ",
        "address": "東京都豊島区東池袋１−２２−１０　ＨＵＭＡＸパビリオン１Ｆ",
        "game": "maimai でらっくす",
        "area": "東京都",
        "game_id": "96",
        "region_id": "12",
        "store_id": "19743",
        "latitude": "35.7296795",
        "longitude": "139.7157691",
        "map_url": "https://maps.google.com/maps.google.com/maps?q=ｎａｍｃｏ池袋店ＲＥＤ"
    },
    {
        "name": "東京レジャーランド池袋店",
        "address": "東京都豊島区東池袋１−２９−１サントロペ池袋２階３階",
        "game": "maimai でらっくす",
        "area": "東京都",
        "game_id": "96",
        "region_id": "12",
        "store_id": "19396",
        "latitude": "35.73048868515159",
        "longitude": "139.71644453012445",
        "map_url": "https://maps.google.com/maps.google.com/maps?q=東京レジャーランド池袋店"
    },
    {
        "name": "GiGO池袋3号館",
        "address": "東京都豊島区東池袋1-1-4池袋北辰ビル",
        "game": "maimai でらっくす",
        "area": "東京都",
        "game_id": "96",
        "region_id": "12",
        "store_id": "19350",
        "latitude": "35.7299595",
        "longitude": "139.7132172",
        "map_url": "https://maps.google.com/maps.google.com/maps?q=GiGO池袋3号館"
    },
    {
        "name": "タイトーステーション 池袋西口店",
        "address": "東京都豊島区西池袋１−１５−９第一西池ビル",
        "game": "maimai でらっくす",
        "area": "東京都",
        "game_id": "96",
        "region_id": "12",
        "store_id": "20932",
        "latitude": "35.7305503",
        "longitude": "139.7097415",
        "map_url": "https://maps.google.com/maps.google.com/maps?q=タイトーステーション 池袋西口店"
    },
    {
        "name": "ｎａｍｃｏ巣鴨店",
        "address": "東京都豊島区巣鴨１−１５−１宮田ビルB2F",
        "game": "maimai でらっくす",
        "area": "東京都",
        "game_id": "96",
        "region_id": "12",
        "store_id": "28901",
        "latitude": "35.733162327288184",
        "longitude": "139.73984615704308",
        "map_url": "https://maps.google.com/maps.google.com/maps?q=ｎａｍｃｏ巣鴨店"
    },
    {
        "name": "ゲームＷ",
        "address": "東京都豊島区南長崎5-27-6",
        "game": "maimai でらっくす",
        "area": "東京都",
        "game_id": "96",
        "region_id": "12",
        "store_id": "25687",
        "latitude": "35.7292369543395",
        "longitude": "139.68287147665183",
        "map_url": "https://maps.google.com/maps.google.com/maps?q=ゲームＷ"
    },
    {
        "name": "東京レジャーランド秋葉原店",
        "address": "東京都千代田区外神田1-9-5",
        "game": "maimai でらっくす",
        "area": "東京都",
        "game_id": "96",
        "region_id": "12",
        "store_id": "26726",
        "latitude": "35.69874690738787",
        "longitude": "139.77014704540363",
        "map_url": "https://maps.google.com/maps.google.com/maps?q=東京レジャーランド秋葉原店"
    },
    {
        "name": "ｎａｍｃｏ秋葉原",
        "address": "東京都千代田区外神田１丁目１５番９号",
        "game": "maimai でらっくす",
        "area": "東京都",
        "game_id": "96",
        "region_id": "12",
        "store_id": "19134",
        "latitude": "35.6980094",
        "longitude": "139.7724164",
        "map_url": "https://maps.google.com/maps.google.com/maps?q=ｎａｍｃｏ秋葉原"
    },
    {
        "name": "ＧｉＧＯ秋葉原１号館",
        "address": "東京都千代田区外神田１−１０ー９",
        "game": "maimai でらっくす",
        "area": "東京都",
        "game_id": "96",
        "region_id": "12",
        "store_id": "29332",
        "latitude": "35.698702",
        "longitude": "139.771017",
        "map_url": "https://maps.google.com/maps.google.com/maps?q=ＧｉＧＯ秋葉原１号館"
    },
    {
        "name": "タイトーステーション 秋葉原店",
        "address": "東京都千代田区外神田４−２−２貴三ビル",
        "game": "maimai でらっくす",
        "area": "東京都",
        "game_id": "96",
        "region_id": "12",
        "store_id": "26725",
        "latitude": "35.70022192831575",
        "longitude": "139.77171785031453",
        "map_url": "https://maps.google.com/maps.google.com/maps?q=タイトーステーション 秋葉原店"
    },
    {
        "name": "東京レジャーランド秋葉原2号店",
        "address": "東京都千代田区外神田4-3-3ミナミビル6F・7F",
        "game": "maimai でらっくす",
        "area": "東京都",
        "game_id": "96",
        "region_id": "12",
        "store_id": "24994",
        "latitude": "35.7008302",
        "longitude": "139.7718494",
        "map_url": "https://maps.google.com/maps.google.com/maps?q=東京レジャーランド秋葉原2号店"
    },
    {
        "name": "ＧｉＧＯ秋葉原３号館２",
        "address": "東京都千代田区外神田１−１１−１１外神田１丁目ビルディング",
        "game": "maimai でらっくす",
        "area": "東京都",
        "game_id": "96",
        "region_id": "12",
        "store_id": "19593",
        "latitude": "35.6992461",
        "longitude": "139.7709387",
        "map_url": "https://maps.google.com/maps.google.com/maps?q=ＧｉＧＯ秋葉原３号館２"
    },
    {
        "name": "ゲームパニック秋葉原",
        "address": "東京都千代田区外神田1-13-1　Akihabara ex",
        "game": "maimai でらっくす",
        "area": "東京都",
        "game_id": "96",
        "region_id": "12",
        "store_id": "19379",
        "latitude": "35.6988516",
        "longitude": "139.7716001",
        "map_url": "https://maps.google.com/maps.google.com/maps?q=ゲームパニック秋葉原"
    },
    {
        "name": "タイトーステーション 渋谷店",
        "address": "東京都渋谷区渋谷１−２４−１２渋谷東映プラザ",
        "game": "maimai でらっくす",
        "area": "東京都",
        "game_id": "96",
        "region_id": "12",
        "store_id": "28575",
        "latitude": "35.65985204002188",
        "longitude": "139.70199283743432",
        "map_url": "https://maps.google.com/maps.google.com/maps?q=タイトーステーション 渋谷店"
    },
    {
        "name": "ＧｉＧＯ渋谷宮益坂",
        "address": "東京都渋谷区渋谷１−１４−１４ＥＳＴ１階・７階",
        "game": "maimai でらっくす",
        "area": "東京都",
        "game_id": "96",
        "region_id": "12",
        "store_id": "29331",
        "latitude": "35.6600164",
        "longitude": "139.7025897",
        "map_url": "https://maps.google.com/maps.google.com/maps?q=ＧｉＧＯ渋谷宮益坂"
    },
    {
        "name": "アミューズメントスペースASO：VIBA！",
        "address": "東京都渋谷区恵比寿1-10-5三恵エビスビル2F",
        "game": "maimai でらっくす",
        "area": "東京都",
        "game_id": "96",
        "region_id": "12",
        "store_id": "28785",
        "latitude": "35.6467821",
        "longitude": "139.7110171",
        "map_url": "https://maps.google.com/maps.google.com/maps?q=アミューズメントスペースASO：VIBA！"
    },
    {
        "name": "ＧｉＧＯ新宿西口",
        "address": "東京都新宿区西新宿１−１２−５Ｂ１Ｆ・１Ｆ",
        "game": "maimai でらっくす",
        "area": "東京都",
        "game_id": "96",
        "region_id": "12",
        "store_id": "29330",
        "latitude": "35.689529241569375",
        "longitude": "139.6973699957008",
        "map_url": "https://maps.google.com/maps.google.com/maps?q=ＧｉＧＯ新宿西口"
    },
    {
        "name": "新宿スポーツランド本館",
        "address": "東京都新宿区新宿3-22-12",
        "game": "maimai でらっくす",
        "area": "東京都",
        "game_id": "96",
        "region_id": "12",
        "store_id": "29326",
        "latitude": "35.693125966474724",
        "longitude": "139.70182948343245",
        "map_url": "https://maps.google.com/maps.google.com/maps?q=新宿スポーツランド本館"
    },
    {
        "name": "タイトー新宿南口ゲームワールド店",
        "address": "東京都新宿区新宿３−３５−８",
        "game": "maimai でらっくす",
        "area": "東京都",
        "game_id": "96",
        "region_id": "12",
        "store_id": "28576",
        "latitude": "35.68986596324073",
        "longitude": "139.70225423802867",
        "map_url": "https://maps.google.com/maps.google.com/maps?q=タイトー新宿南口ゲームワールド店"
    },
    {
        "name": "タイトーステーション新宿東口店",
        "address": "東京都新宿区新宿３−２２−７　指田ビル",
        "game": "maimai でらっくす",
        "area": "東京都",
        "game_id": "96",
        "region_id": "12",
        "store_id": "28560",
        "latitude": "35.69328019150724",
        "longitude": "139.7015307668995",
        "map_url": "https://maps.google.com/maps.google.com/maps?q=タイトーステーション新宿東口店"
    },
    {
        "name": "ゲームパニック新宿歌舞伎町",
        "address": "東京都新宿区歌舞伎町1-20-1　ﾋｭｰﾏｯｸｽﾊﾟﾋﾞﾘｵﾝ1階2階",
        "game": "maimai でらっくす",
        "area": "東京都",
        "game_id": "96",
        "region_id": "12",
        "store_id": "19405",
        "latitude": "35.6958088",
        "longitude": "139.7015128",
        "map_url": "https://maps.google.com/maps.google.com/maps?q=ゲームパニック新宿歌舞伎町"
    },
    {
        "name": "ＧｉＧＯ新大久保",
        "address": "東京都新宿区百人町２丁目１０−１南雲ビルＢ１Ｆ",
        "game": "maimai でらっくす",
        "area": "東京都",
        "game_id": "96",
        "region_id": "12",
        "store_id": "19746",
        "latitude": "35.7017862",
        "longitude": "139.6995136",
        "map_url": "https://maps.google.com/maps.google.com/maps?q=ＧｉＧＯ新大久保"
    },
    {
        "name": "タイトーＢＩＧＢＯＸ高田馬場店",
        "address": "東京都新宿区高田馬場１−３５−３　ＢＩＧＢＯＸ６Ｆ",
        "game": "maimai でらっくす",
        "area": "東京都",
        "game_id": "96",
        "region_id": "12",
        "store_id": "28570",
        "latitude": "35.7129463",
        "longitude": "139.7042567",
        "map_url": "https://maps.google.com/maps.google.com/maps?q=タイトーＢＩＧＢＯＸ高田馬場店"
    },
    {
        "name": "ＧｉＧＯ高田馬場",
        "address": "東京都新宿区高田馬場４−７−５高田馬場グランド東京",
        "game": "maimai でらっくす",
        "area": "東京都",
        "game_id": "96",
        "region_id": "12",
        "store_id": "19390",
        "latitude": "35.7136018",
        "longitude": "139.7037221",
        "map_url": "https://maps.google.com/maps.google.com/maps?q=ＧｉＧＯ高田馬場"
    },
    {
        "name": "ＧｉＧＯ神楽坂",
        "address": "東京都新宿区神楽坂２−１１第２カグラヒルズ１Ｆ",
        "game": "maimai でらっくす",
        "area": "東京都",
        "game_id": "96",
        "region_id": "12",
        "store_id": "29315",
        "latitude": "35.7010372",
        "longitude": "139.7420111",
        "map_url": "https://maps.google.com/maps.google.com/maps?q=ＧｉＧＯ神楽坂"
    },
    {
        "name": "シルクハット蒲田西口",
        "address": "東京都大田区西蒲田７−２−３第二醍醐ビル地下１階〜２階",
        "game": "maimai でらっくす",
        "area": "東京都",
        "game_id": "96",
        "region_id": "12",
        "store_id": "28728",
        "latitude": "35.563073",
        "longitude": "139.71596499999998",
        "map_url": "https://maps.google.com/maps.google.com/maps?q=シルクハット蒲田西口"
    },
    {
        "name": "ＧｉＧＯ大森",
        "address": "東京都大田区山王２−１−５大森駅ララビル２Ｆ",
        "game": "maimai でらっくす",
        "area": "東京都",
        "game_id": "96",
        "region_id": "12",
        "store_id": "29307",
        "latitude": "35.5900117",
        "longitude": "139.7284234",
        "map_url": "https://maps.google.com/maps.google.com/maps?q=ＧｉＧＯ大森"
    },
    {
        "name": "ＧｉＧＯ池上",
        "address": "東京都大田区池上６−２−３松山ビル２Ｆ",
        "game": "maimai でらっくす",
        "area": "東京都",
        "game_id": "96",
        "region_id": "12",
        "store_id": "29051",
        "latitude": "35.5726635",
        "longitude": "139.7021271",
        "map_url": "https://maps.google.com/maps.google.com/maps?q=ＧｉＧＯ池上"
    },
    {
        "name": "SOYU ZAURUS WORLD 大森店　",
        "address": "東京都大田区大森北2-13-1イトーヨーカドー大森店3F",
        "game": "maimai でらっくす",
        "area": "東京都",
        "game_id": "96",
        "region_id": "12",
        "store_id": "23868",
        "latitude": "35.5864789",
        "longitude": "139.7330455",
        "map_url": "https://maps.google.com/maps.google.com/maps?q=SOYU ZAURUS WORLD 大森店　"
    },
    {
        "name": "タイトーステーションＢＩＧＦＵＮ平和島店",
        "address": "東京都大田区平和島１丁目１−１ＢＩＧＦＵＮ平和島",
        "game": "maimai でらっくす",
        "area": "東京都",
        "game_id": "96",
        "region_id": "12",
        "store_id": "20213",
        "latitude": "35.584355180861806",
        "longitude": "139.74085188783556",
        "map_url": "https://maps.google.com/maps.google.com/maps?q=タイトーステーションＢＩＧＦＵＮ平和島店"
    },
    {
        "name": "タイトーステーション 上野アメ横店",
        "address": "東京都台東区上野４−１０−１７",
        "game": "maimai でらっくす",
        "area": "東京都",
        "game_id": "96",
        "region_id": "12",
        "store_id": "26165",
        "latitude": "35.71053384829308",
        "longitude": "139.7744241711639",
        "map_url": "https://maps.google.com/maps.google.com/maps?q=タイトーステーション 上野アメ横店"
    },
    {
        "name": "アドアーズ上野アメ横",
        "address": "東京都台東区上野４−９−１４上野Ｋ．ＫビルＢ１〜４階",
        "game": "maimai でらっくす",
        "area": "東京都",
        "game_id": "96",
        "region_id": "12",
        "store_id": "24940",
        "latitude": "35.710038011614536",
        "longitude": "139.7742682282244",
        "map_url": "https://maps.google.com/maps.google.com/maps?q=アドアーズ上野アメ横"
    },
    {
        "name": "世田谷オークラボウル",
        "address": "東京都世田谷区桜３−２４−１",
        "game": "maimai でらっくす",
        "area": "東京都",
        "game_id": "96",
        "region_id": "12",
        "store_id": "21892",
        "latitude": "35.64052",
        "longitude": "139.6386376",
        "map_url": "https://maps.google.com/maps.google.com/maps?q=世田谷オークラボウル"
    },
    {
        "name": "アミュージアムＯＳＣ店",
        "address": "東京都練馬区東大泉２−３４−１オズスタジオシティ２Ｆ",
        "game": "maimai でらっくす",
        "area": "東京都",
        "game_id": "96",
        "region_id": "12",
        "store_id": "27604",
        "latitude": "35.75304058872754",
        "longitude": "139.59483487301634",
        "map_url": "https://maps.google.com/maps.google.com/maps?q=アミュージアムＯＳＣ店"
    },
    {
        "name": "ＧｉＧＯ船堀",
        "address": "東京都江戸川区船堀１ー６ー１１",
        "game": "maimai でらっくす",
        "area": "東京都",
        "game_id": "96",
        "region_id": "12",
        "store_id": "29316",
        "latitude": "35.6848536",
        "longitude": "139.8638638",
        "map_url": "https://maps.google.com/maps.google.com/maps?q=ＧｉＧＯ船堀"
    },
    {
        "name": "キャッツアイ西葛西店",
        "address": "東京都江戸川区西葛西４−２−２８",
        "game": "maimai でらっくす",
        "area": "東京都",
        "game_id": "96",
        "region_id": "12",
        "store_id": "25096",
        "latitude": "35.668324490430166",
        "longitude": "139.8618017146805",
        "map_url": "https://maps.google.com/maps.google.com/maps?q=キャッツアイ西葛西店"
    },
    {
        "name": "ＧｉＧＯ西葛西",
        "address": "東京都江戸川区西葛西５−１−１４第一保志ビル",
        "game": "maimai でらっくす",
        "area": "東京都",
        "game_id": "96",
        "region_id": "12",
        "store_id": "29317",
        "latitude": "35.66529684513976",
        "longitude": "139.85926878220903",
        "map_url": "https://maps.google.com/maps.google.com/maps?q=ＧｉＧＯ西葛西"
    },
    {
        "name": "ＧｉＧＯアリオ葛西",
        "address": "東京都江戸川区東葛西９−３−３イトーヨーカドー３Ｆ",
        "game": "maimai でらっくす",
        "area": "東京都",
        "game_id": "96",
        "region_id": "12",
        "store_id": "25773",
        "latitude": "35.6525142654189",
        "longitude": "139.8817871559586",
        "map_url": "https://maps.google.com/maps.google.com/maps?q=ＧｉＧＯアリオ葛西"
    },
    {
        "name": "ＧｉＧＯラパーク瑞江",
        "address": "東京都江戸川区瑞江２−１−２ドン・キホーテラパーク瑞江店４Ｆ",
        "game": "maimai でらっくす",
        "area": "東京都",
        "game_id": "96",
        "region_id": "12",
        "store_id": "24193",
        "latitude": "35.692846730009585",
        "longitude": "139.89675292453694",
        "map_url": "https://maps.google.com/maps.google.com/maps?q=ＧｉＧＯラパーク瑞江"
    },
    {
        "name": "江戸川ヤングボウル",
        "address": "東京都江戸川区中央4-22-25",
        "game": "maimai でらっくす",
        "area": "東京都",
        "game_id": "96",
        "region_id": "12",
        "store_id": "24077",
        "latitude": "35.7112564",
        "longitude": "139.8694347",
        "map_url": "https://maps.google.com/maps.google.com/maps?q=江戸川ヤングボウル"
    },
    {
        "name": "アミューズランドモナコ調布駅前店",
        "address": "東京都調布市布田４−２−２２",
        "game": "maimai でらっくす",
        "area": "東京都",
        "game_id": "96",
        "region_id": "12",
        "store_id": "28792",
        "latitude": "35.6512163258339",
        "longitude": "139.54435173558204",
        "map_url": "https://maps.google.com/maps.google.com/maps?q=アミューズランドモナコ調布駅前店"
    },
    {
        "name": "アドアーズ仙川",
        "address": "東京都調布市仙川町２−２１−１２　ＶＩＣビル７",
        "game": "maimai でらっくす",
        "area": "東京都",
        "game_id": "96",
        "region_id": "12",
        "store_id": "28741",
        "latitude": "35.66249229582408",
        "longitude": "139.58409358570555",
        "map_url": "https://maps.google.com/maps.google.com/maps?q=アドアーズ仙川"
    },
    {
        "name": "アピナ荻窪店",
        "address": "東京都杉並区上荻１−１３−１０ハクサンビル",
        "game": "maimai でらっくす",
        "area": "東京都",
        "game_id": "96",
        "region_id": "12",
        "store_id": "20086",
        "latitude": "35.7050135",
        "longitude": "139.6181738",
        "map_url": "https://maps.google.com/maps.google.com/maps?q=アピナ荻窪店"
    },
    {
        "name": "ゲームプラザセントラル八王子店",
        "address": "東京都八王子市東町12-15第5セントラル",
        "game": "maimai でらっくす",
        "area": "東京都",
        "game_id": "96",
        "region_id": "12",
        "store_id": "28788",
        "latitude": "35.65800063081574",
        "longitude": "139.33817620982177",
        "map_url": "https://maps.google.com/maps.google.com/maps?q=ゲームプラザセントラル八王子店"
    },
    {
        "name": "ドラマ八王子高倉店",
        "address": "東京都八王子市高倉町55-4",
        "game": "maimai でらっくす",
        "area": "東京都",
        "game_id": "96",
        "region_id": "12",
        "store_id": "26071",
        "latitude": "35.6650608",
        "longitude": "139.3664651",
        "map_url": "https://maps.google.com/maps.google.com/maps?q=ドラマ八王子高倉店"
    },
    {
        "name": "シルクハット八王子",
        "address": "東京都八王子市旭町２−５　八王子ツインタワービル３階",
        "game": "maimai でらっくす",
        "area": "東京都",
        "game_id": "96",
        "region_id": "12",
        "store_id": "26064",
        "latitude": "35.65640208379338",
        "longitude": "139.3384065104334",
        "map_url": "https://maps.google.com/maps.google.com/maps?q=シルクハット八王子"
    },
    {
        "name": "アピナ八王子みなみ野店",
        "address": "東京都八王子市みなみ野１−２−１アクロスモール３Ｆ",
        "game": "maimai でらっくす",
        "area": "東京都",
        "game_id": "96",
        "region_id": "12",
        "store_id": "25506",
        "latitude": "35.63061695421143",
        "longitude": "139.32927201038137",
        "map_url": "https://maps.google.com/maps.google.com/maps?q=アピナ八王子みなみ野店"
    },
    {
        "name": "ソユーゲームフィールド南大沢店",
        "address": "東京都八王子市南大沢２−２８−１イトーヨーカドー南大沢店２Ｆ",
        "game": "maimai でらっくす",
        "area": "東京都",
        "game_id": "96",
        "region_id": "12",
        "store_id": "23849",
        "latitude": "35.61322824436709",
        "longitude": "139.379479661377",
        "map_url": "https://maps.google.com/maps.google.com/maps?q=ソユーゲームフィールド南大沢店"
    },
    {
        "name": "ソユープレイランドソピア八王子店",
        "address": "東京都八王子市狭間町1462-1イトーヨーカドー八王子店3F",
        "game": "maimai でらっくす",
        "area": "東京都",
        "game_id": "96",
        "region_id": "12",
        "store_id": "23854",
        "latitude": "35.6379179",
        "longitude": "139.2934363",
        "map_url": "https://maps.google.com/maps.google.com/maps?q=ソユープレイランドソピア八王子店"
    },
    {
        "name": "ＮＩＣＯＰＡ高尾店",
        "address": "東京都八王子市東浅川町550-1イーアス高尾2F",
        "game": "maimai でらっくす",
        "area": "東京都",
        "game_id": "96",
        "region_id": "12",
        "store_id": "20628",
        "latitude": "35.645164",
        "longitude": "139.2912724",
        "map_url": "https://maps.google.com/maps.google.com/maps?q=ＮＩＣＯＰＡ高尾店"
    },
    {
        "name": "ハローズガーデン武蔵小金井店",
        "address": "東京都小金井市本町6-14-9イトーヨーカドー武蔵小金井店4F",
        "game": "maimai でらっくす",
        "area": "東京都",
        "game_id": "96",
        "region_id": "12",
        "store_id": "23842",
        "latitude": "35.7004955",
        "longitude": "139.50481441045076",
        "map_url": "https://maps.google.com/maps.google.com/maps?q=ハローズガーデン武蔵小金井店"
    },
    {
        "name": "ＧｉＧＯ自由が丘",
        "address": "東京都目黒区自由が丘２ー１０ー９",
        "game": "maimai でらっくす",
        "area": "東京都",
        "game_id": "96",
        "region_id": "12",
        "store_id": "29301",
        "latitude": "35.60844407439564",
        "longitude": "139.66756573988118",
        "map_url": "https://maps.google.com/maps.google.com/maps?q=ＧｉＧＯ自由が丘"
    },
    {
        "name": "ＧｉＧＯ赤羽",
        "address": "東京都北区赤羽１−７−９赤羽第一葉山ビルＢ１",
        "game": "maimai でらっくす",
        "area": "東京都",
        "game_id": "96",
        "region_id": "12",
        "store_id": "24180",
        "latitude": "35.77896072353456",
        "longitude": "139.7222841680882",
        "map_url": "https://maps.google.com/maps.google.com/maps?q=ＧｉＧＯ赤羽"
    },
    {
        "name": "ＧｉＧＯ赤羽駅前",
        "address": "東京都北区赤羽１−２−４",
        "game": "maimai でらっくす",
        "area": "東京都",
        "game_id": "96",
        "region_id": "12",
        "store_id": "20162",
        "latitude": "35.7782507",
        "longitude": "139.7215917",
        "map_url": "https://maps.google.com/maps.google.com/maps?q=ＧｉＧＯ赤羽駅前"
    },
    {
        "name": "ｎａｍｃｏ王子サンスクエア店",
        "address": "東京都北区王子１−４−１サンスクエア２階",
        "game": "maimai でらっくす",
        "area": "東京都",
        "game_id": "96",
        "region_id": "12",
        "store_id": "25689",
        "latitude": "35.7529737",
        "longitude": "139.7389579",
        "map_url": "https://maps.google.com/maps.google.com/maps?q=ｎａｍｃｏ王子サンスクエア店"
    },
    {
        "name": "東十条ゲームリボン",
        "address": "東京都北区東十条4-4-23",
        "game": "maimai でらっくす",
        "area": "東京都",
        "game_id": "96",
        "region_id": "12",
        "store_id": "27863",
        "latitude": "35.7658082",
        "longitude": "139.7275083",
        "map_url": "https://maps.google.com/maps.google.com/maps?q=東十条ゲームリボン"
    },
    {
        "name": "東京ジョイポリス",
        "address": "東京都港区台場1-6-1デックス東京ビーチ4F",
        "game": "maimai でらっくす",
        "area": "東京都",
        "game_id": "96",
        "region_id": "12",
        "store_id": "23278",
        "latitude": "35.6289143760236",
        "longitude": "139.77539029311527",
        "map_url": "https://maps.google.com/maps.google.com/maps?q=東京ジョイポリス"
    },
    {
        "name": "タイトーステーション 町田店",
        "address": "東京都町田市原町田６−２１−２３　松山ビル１階",
        "game": "maimai でらっくす",
        "area": "東京都",
        "game_id": "96",
        "region_id": "12",
        "store_id": "27107",
        "latitude": "35.542713244142064",
        "longitude": "139.44848605277866",
        "map_url": "https://maps.google.com/maps.google.com/maps?q=タイトーステーション 町田店"
    },
    {
        "name": "アドアーズ町田",
        "address": "東京都町田市原町田６−２１−２５　大正堂第２ビル１〜４Ｆ",
        "game": "maimai でらっくす",
        "area": "東京都",
        "game_id": "96",
        "region_id": "12",
        "store_id": "28742",
        "latitude": "35.5428299",
        "longitude": "139.44818168650818",
        "map_url": "https://maps.google.com/maps.google.com/maps?q=アドアーズ町田"
    },
    {
        "name": "ＧｉＧＯ町田",
        "address": "東京都町田市原町田６−１３ー１７アーバンミサワビルＢ１",
        "game": "maimai でらっくす",
        "area": "東京都",
        "game_id": "96",
        "region_id": "12",
        "store_id": "20225",
        "latitude": "35.5438675",
        "longitude": "139.4469818",
        "map_url": "https://maps.google.com/maps.google.com/maps?q=ＧｉＧＯ町田"
    },
    {
        "name": "ラウンドワン町田店",
        "address": "東京都町田市森野１−１３−１４",
        "game": "maimai でらっくす",
        "area": "東京都",
        "game_id": "96",
        "region_id": "12",
        "store_id": "26267",
        "latitude": "35.54396646674992",
        "longitude": "139.44323083498762",
        "map_url": "https://maps.google.com/maps.google.com/maps?q=ラウンドワン町田店"
    },
    {
        "name": "ＧｉＧＯ南町田ＧＢＰシアター",
        "address": "東京都町田市鶴間３−４−１ワンダーシアター１階Ｈ１０３区画",
        "game": "maimai でらっくす",
        "area": "東京都",
        "game_id": "96",
        "region_id": "12",
        "store_id": "19978",
        "latitude": "35.5098378",
        "longitude": "139.4699593",
        "map_url": "https://maps.google.com/maps.google.com/maps?q=ＧｉＧＯ南町田ＧＢＰシアター"
    },
    {
        "name": "タイトーステーション国分寺店",
        "address": "東京都国分寺市本町３−５−１１",
        "game": "maimai でらっくす",
        "area": "東京都",
        "game_id": "96",
        "region_id": "12",
        "store_id": "28549",
        "latitude": "35.7018475",
        "longitude": "139.479889",
        "map_url": "https://maps.google.com/maps.google.com/maps?q=タイトーステーション国分寺店"
    },
    {
        "name": "ｎａｍｃｏ中野店",
        "address": "東京都中野区中野５−５２−１５中野ブロードウェイ別館",
        "game": "maimai でらっくす",
        "area": "東京都",
        "game_id": "96",
        "region_id": "12",
        "store_id": "26307",
        "latitude": "35.709127585925984",
        "longitude": "139.6661370681055",
        "map_url": "https://maps.google.com/maps.google.com/maps?q=ｎａｍｃｏ中野店"
    },
    {
        "name": "アドアーズ中野",
        "address": "東京都中野区中野５−５２−１５　ブロードウェイ１８５",
        "game": "maimai でらっくす",
        "area": "東京都",
        "game_id": "96",
        "region_id": "12",
        "store_id": "28752",
        "latitude": "35.70919237926914",
        "longitude": "139.6656938330658",
        "map_url": "https://maps.google.com/maps.google.com/maps?q=アドアーズ中野"
    },
    {
        "name": "Amusement&Game MAGHREB",
        "address": "東京都多摩市落合１−４１−１マグレブウェスト１階・２階",
        "game": "maimai でらっくす",
        "area": "東京都",
        "game_id": "96",
        "region_id": "12",
        "store_id": "22923",
        "latitude": "35.6245439",
        "longitude": "139.4256174",
        "map_url": "https://maps.google.com/maps.google.com/maps?q=Amusement&Game MAGHREB"
    },
    {
        "name": "ＰＡＬＯ聖蹟桜ヶ丘",
        "address": "東京都多摩市関戸４−７２聖蹟桜ヶ丘オーパ店６Ｆ",
        "game": "maimai でらっくす",
        "area": "東京都",
        "game_id": "96",
        "region_id": "12",
        "store_id": "26438",
        "latitude": "35.6496304",
        "longitude": "139.4471508",
        "map_url": "https://maps.google.com/maps.google.com/maps?q=ＰＡＬＯ聖蹟桜ヶ丘"
    },
    {
        "name": "アミューズメントスペースカプセル",
        "address": "東京都多摩市永山１−３−４ヒューマックスパビリオン永山B1-2F",
        "game": "maimai でらっくす",
        "area": "東京都",
        "game_id": "96",
        "region_id": "12",
        "store_id": "27872",
        "latitude": "35.631434443561474",
        "longitude": "139.4479250509262",
        "map_url": "https://maps.google.com/maps.google.com/maps?q=アミューズメントスペースカプセル"
    },
    {
        "name": "ゲームサファリ大山",
        "address": "東京都板橋区大山東町60-10やすだ大山駅前店2F",
        "game": "maimai でらっくす",
        "area": "東京都",
        "game_id": "96",
        "region_id": "12",
        "store_id": "26018",
        "latitude": "35.74903296863564",
        "longitude": "139.70223921717934",
        "map_url": "https://maps.google.com/maps.google.com/maps?q=ゲームサファリ大山"
    },
    {
        "name": "アピナ成増店",
        "address": "東京都板橋区成増二丁目２１番２号　メガドンキホーテ成増店５階",
        "game": "maimai でらっくす",
        "area": "東京都",
        "game_id": "96",
        "region_id": "12",
        "store_id": "18928",
        "latitude": "35.7781263",
        "longitude": "139.6304404",
        "map_url": "https://maps.google.com/maps.google.com/maps?q=アピナ成増店"
    },
    {
        "name": "ＧｉＧＯ成増",
        "address": "東京都板橋区成増２ー１７ー２４五曠第６ビル",
        "game": "maimai でらっくす",
        "area": "東京都",
        "game_id": "96",
        "region_id": "12",
        "store_id": "18787",
        "latitude": "35.7774582",
        "longitude": "139.6312607",
        "map_url": "https://maps.google.com/maps.google.com/maps?q=ＧｉＧＯ成増"
    },
    {
        "name": "ラウンドワン板橋店",
        "address": "東京都板橋区相生町１６−１３",
        "game": "maimai でらっくす",
        "area": "東京都",
        "game_id": "96",
        "region_id": "12",
        "store_id": "25739",
        "latitude": "35.7766273",
        "longitude": "139.6786153",
        "map_url": "https://maps.google.com/maps.google.com/maps?q=ラウンドワン板橋店"
    },
    {
        "name": "ＧｉＧＯ立川",
        "address": "東京都立川市柴崎町３−２−１サザンビル１・２Ｆ",
        "game": "maimai でらっくす",
        "area": "東京都",
        "game_id": "96",
        "region_id": "12",
        "store_id": "29305",
        "latitude": "35.69751038185614",
        "longitude": "139.41461951653287",
        "map_url": "https://maps.google.com/maps.google.com/maps?q=ＧｉＧＯ立川"
    },
    {
        "name": "タイトーステーション立川北口店",
        "address": "東京都立川市曙町２−４−５クリサス立川２・３Ｆ",
        "game": "maimai でらっくす",
        "area": "東京都",
        "game_id": "96",
        "region_id": "12",
        "store_id": "20644",
        "latitude": "35.6991102",
        "longitude": "139.4120958",
        "map_url": "https://maps.google.com/maps.google.com/maps?q=タイトーステーション立川北口店"
    },
    {
        "name": "ＷＯＲＬＤ　ＧＡＭＥ　ＣＩＲＣＵＳ",
        "address": "東京都立川市羽衣町２−４−１３羽衣長田ビル１０１ＷＧＣ",
        "game": "maimai でらっくす",
        "area": "東京都",
        "game_id": "96",
        "region_id": "12",
        "store_id": "19698",
        "latitude": "35.6964221",
        "longitude": "139.4288034",
        "map_url": "https://maps.google.com/maps.google.com/maps?q=ＷＯＲＬＤ　ＧＡＭＥ　ＣＩＲＣＵＳ"
    },
    {
        "name": "タイトーステーション錦糸町楽天地店",
        "address": "東京都墨田区江東橋４−２７−１４楽天地ビルＢ１Ｆ",
        "game": "maimai でらっくす",
        "area": "東京都",
        "game_id": "96",
        "region_id": "12",
        "store_id": "23989",
        "latitude": "35.6964979",
        "longitude": "139.815807",
        "map_url": "https://maps.google.com/maps.google.com/maps?q=タイトーステーション錦糸町楽天地店"
    },
    {
        "name": "タイトーＦステーションオリナス錦糸町店",
        "address": "東京都墨田区太平4-1-2オリナスモール地下1F",
        "game": "maimai でらっくす",
        "area": "東京都",
        "game_id": "96",
        "region_id": "12",
        "store_id": "25741",
        "latitude": "35.7003101052259",
        "longitude": "139.81526531157",
        "map_url": "https://maps.google.com/maps.google.com/maps?q=タイトーＦステーションオリナス錦糸町店"
    },
    {
        "name": "アドアーズ新小岩",
        "address": "東京都葛飾区新小岩１−４４−４　ＶＯＲＴ新小岩ビル",
        "game": "maimai でらっくす",
        "area": "東京都",
        "game_id": "96",
        "region_id": "12",
        "store_id": "25179",
        "latitude": "35.716296833979555",
        "longitude": "139.85822635581974",
        "map_url": "https://maps.google.com/maps.google.com/maps?q=アドアーズ新小岩"
    },
    {
        "name": "東京レジャーランド亀有店",
        "address": "東京都葛飾区亀有3-21-2",
        "game": "maimai でらっくす",
        "area": "東京都",
        "game_id": "96",
        "region_id": "12",
        "store_id": "21690",
        "latitude": "35.7654165",
        "longitude": "139.8480115",
        "map_url": "https://maps.google.com/maps.google.com/maps?q=東京レジャーランド亀有店"
    },
    {
        "name": "ＧｉＧＯ立石",
        "address": "東京都葛飾区立石７丁目３番６号リ・セブン",
        "game": "maimai でらっくす",
        "area": "東京都",
        "game_id": "96",
        "region_id": "12",
        "store_id": "18735",
        "latitude": "35.7396004",
        "longitude": "139.8494377",
        "map_url": "https://maps.google.com/maps.google.com/maps?q=ＧｉＧＯ立石"
    },
    {
        "name": "アドアーズ亀戸店",
        "address": "東京都江東区亀戸５−２−６サンエービル１〜５階",
        "game": "maimai でらっくす",
        "area": "東京都",
        "game_id": "96",
        "region_id": "12",
        "store_id": "26738",
        "latitude": "35.698963519867526",
        "longitude": "139.82590365522537",
        "map_url": "https://maps.google.com/maps.google.com/maps?q=アドアーズ亀戸店"
    },
    {
        "name": "ラウンドワン南砂店",
        "address": "東京都江東区南砂６−７−１５トピレックプラザ４Ｆ",
        "game": "maimai でらっくす",
        "area": "東京都",
        "game_id": "96",
        "region_id": "12",
        "store_id": "28637",
        "latitude": "35.671843089516535",
        "longitude": "139.83697814669654",
        "map_url": "https://maps.google.com/maps.google.com/maps?q=ラウンドワン南砂店"
    },
    {
        "name": "ラウンドワンダイバーシティ東京プラザ店",
        "address": "東京都江東区青海1-1-10ダイバーシティ東京プラザ6階61000",
        "game": "maimai でらっくす",
        "area": "東京都",
        "game_id": "96",
        "region_id": "12",
        "store_id": "23048",
        "latitude": "35.6256893666879",
        "longitude": "139.7763085652207",
        "map_url": "https://maps.google.com/maps.google.com/maps?q=ラウンドワンダイバーシティ東京プラザ店"
    },
    {
        "name": "タイトーＦステーション吉祥寺ＪＯＹ店",
        "address": "東京都武蔵野市吉祥寺本町１丁目８‐２３　河田ビル",
        "game": "maimai でらっくす",
        "area": "東京都",
        "game_id": "96",
        "region_id": "12",
        "store_id": "19387",
        "latitude": "35.7041889",
        "longitude": "139.5795301",
        "map_url": "https://maps.google.com/maps.google.com/maps?q=タイトーＦステーション吉祥寺ＪＯＹ店"
    },
    {
        "name": "ラウンドワン吉祥寺店",
        "address": "東京都武蔵野市吉祥寺本町1-11-22",
        "game": "maimai でらっくす",
        "area": "東京都",
        "game_id": "96",
        "region_id": "12",
        "store_id": "20571",
        "latitude": "35.706301998702415",
        "longitude": "139.58077991055484",
        "map_url": "https://maps.google.com/maps.google.com/maps?q=ラウンドワン吉祥寺店"
    },
    {
        "name": "東京レジャーランド吉祥寺店",
        "address": "東京都武蔵野市吉祥寺本町1-3-7　YSビル地下１階〜4階",
        "game": "maimai でらっくす",
        "area": "東京都",
        "game_id": "96",
        "region_id": "12",
        "store_id": "19353",
        "latitude": "35.703598",
        "longitude": "139.5787046",
        "map_url": "https://maps.google.com/maps.google.com/maps?q=東京レジャーランド吉祥寺店"
    },
    {
        "name": "プラサカプコン吉祥寺店",
        "address": "東京都武蔵野市吉祥寺本町１−１０−１いなりやビル地下１階",
        "game": "maimai でらっくす",
        "area": "東京都",
        "game_id": "96",
        "region_id": "12",
        "store_id": "28714",
        "latitude": "35.705361",
        "longitude": "139.5790984",
        "map_url": "https://maps.google.com/maps.google.com/maps?q=プラサカプコン吉祥寺店"
    },
    {
        "name": "ＧｉＧＯ府中",
        "address": "東京都府中市西原町１−６−２フレスポ府中１Ｆ・２Ｆ",
        "game": "maimai でらっくす",
        "area": "東京都",
        "game_id": "96",
        "region_id": "12",
        "store_id": "26097",
        "latitude": "35.6824046",
        "longitude": "139.4603984",
        "map_url": "https://maps.google.com/maps.google.com/maps?q=ＧｉＧＯ府中"
    },
    {
        "name": "ラウンドワン府中本町駅前",
        "address": "東京都府中市本町１−１３−３カネタビル",
        "game": "maimai でらっくす",
        "area": "東京都",
        "game_id": "96",
        "region_id": "12",
        "store_id": "24147",
        "latitude": "35.6672709",
        "longitude": "139.4774004",
        "map_url": "https://maps.google.com/maps.google.com/maps?q=ラウンドワン府中本町駅前"
    },
    {
        "name": "ＧｉＧＯ福生",
        "address": "東京都福生市福生１０７６−１",
        "game": "maimai でらっくす",
        "area": "東京都",
        "game_id": "96",
        "region_id": "12",
        "store_id": "29291",
        "latitude": "35.74469998521767",
        "longitude": "139.32428695767214",
        "map_url": "https://maps.google.com/maps.google.com/maps?q=ＧｉＧＯ福生"
    },
    {
        "name": "ウェアハウス入谷店",
        "address": "東京都足立区入谷７−８−１１",
        "game": "maimai でらっくす",
        "area": "東京都",
        "game_id": "96",
        "region_id": "12",
        "store_id": "28301",
        "latitude": "35.801119170471175",
        "longitude": "139.76100336319462",
        "map_url": "https://maps.google.com/maps.google.com/maps?q=ウェアハウス入谷店"
    },
    {
        "name": "ウェアハウス保木間店",
        "address": "東京都足立区保木間１−１−１９",
        "game": "maimai でらっくす",
        "area": "東京都",
        "game_id": "96",
        "region_id": "12",
        "store_id": "28300",
        "latitude": "35.7891796",
        "longitude": "139.8033169",
        "map_url": "https://maps.google.com/maps.google.com/maps?q=ウェアハウス保木間店"
    },
    {
        "name": "ハイテクランドキューデン",
        "address": "東京都足立区西新井栄町2-7-2",
        "game": "maimai でらっくす",
        "area": "東京都",
        "game_id": "96",
        "region_id": "12",
        "store_id": "27192",
        "latitude": "35.7771892",
        "longitude": "139.7893912",
        "map_url": "https://maps.google.com/maps.google.com/maps?q=ハイテクランドキューデン"
    },
    {
        "name": "ＧｉＧＯ竹の塚",
        "address": "東京都足立区竹の塚６−８−６ピーくんＰｌａｚａ−ｂ",
        "game": "maimai でらっくす",
        "area": "東京都",
        "game_id": "96",
        "region_id": "12",
        "store_id": "22528",
        "latitude": "35.79475055918817",
        "longitude": "139.79249677605742",
        "map_url": "https://maps.google.com/maps.google.com/maps?q=ＧｉＧＯ竹の塚"
    },
    {
        "name": "キャロム青梅店",
        "address": "東京都青梅市千ケ瀬町4-326-1",
        "game": "maimai でらっくす",
        "area": "東京都",
        "game_id": "96",
        "region_id": "12",
        "store_id": "25786",
        "latitude": "35.7860653",
        "longitude": "139.2699665",
        "map_url": "https://maps.google.com/maps.google.com/maps?q=キャロム青梅店"
    },
    {
        "name": "ウェアハウス一橋学園店",
        "address": "東京都小平市学園東町一丁目４番３９号平山ビル３Ｆ",
        "game": "maimai でらっくす",
        "area": "東京都",
        "game_id": "96",
        "region_id": "12",
        "store_id": "19776",
        "latitude": "35.7234026",
        "longitude": "139.4807157",
        "map_url": "https://maps.google.com/maps.google.com/maps?q=ウェアハウス一橋学園店"
    },
    {
        "name": "ドラマ瑞穂店",
        "address": "東京都西多摩郡瑞穂町武蔵382-1",
        "game": "maimai でらっくす",
        "area": "東京都",
        "game_id": "96",
        "region_id": "12",
        "store_id": "25170",
        "latitude": "35.7633697720396",
        "longitude": "139.35676716686476",
        "map_url": "https://maps.google.com/maps.google.com/maps?q=ドラマ瑞穂店"
    },
    {
        "name": "ユーズランド日の出店",
        "address": "東京都西多摩郡日の出町大字平井237-3イオンモール日の出３Ｆ",
        "game": "maimai でらっくす",
        "area": "東京都",
        "game_id": "96",
        "region_id": "12",
        "store_id": "25093",
        "latitude": "35.734856064404866",
        "longitude": "139.27524457857362",
        "map_url": "https://maps.google.com/maps.google.com/maps?q=ユーズランド日の出店"
    },
    {
        "name": "ＧｉＧＯイオンモールむさし村山",
        "address": "東京都武蔵村山市榎１−１−３−２０５９",
        "game": "maimai でらっくす",
        "area": "東京都",
        "game_id": "96",
        "region_id": "12",
        "store_id": "25518",
        "latitude": "35.74674134619979",
        "longitude": "139.3850665018524",
        "map_url": "https://maps.google.com/maps.google.com/maps?q=ＧｉＧＯイオンモールむさし村山"
    },
    {
        "name": "ラウンドワン武蔵村山店",
        "address": "東京都武蔵村山市伊奈平３−１−１",
        "game": "maimai でらっくす",
        "area": "東京都",
        "game_id": "96",
        "region_id": "12",
        "store_id": "24782",
        "latitude": "35.73532905260245",
        "longitude": "139.38236187909854",
        "map_url": "https://maps.google.com/maps.google.com/maps?q=ラウンドワン武蔵村山店"
    }
]