[
    {
        "name": "ＧｉＧＯ水戸",
        "address": "茨城県水戸市宮町１−７−４４コムボックス３１０",
        "game": "maimai でらっくす",
        "area": "茨城県",
        "game_id": "96",
        "region_id": "7",
        "store_id": "25759",
        "latitude": "36.3694663",
        "longitude": "140.4745213",
        "map_url": "https://maps.google.com/maps.google.com/maps?q=ＧｉＧＯ水戸"
    },
    {
        "name": "スタジオプリモ水戸店",
        "address": "茨城県水戸市宮町１−２−４マイム１F",
        "game": "maimai でらっくす",
        "area": "茨城県",
        "game_id": "96",
        "region_id": "7",
        "store_id": "21563",
        "latitude": "36.3714779",
        "longitude": "140.4774261",
        "map_url": "https://maps.google.com/maps.google.com/maps?q=スタジオプリモ水戸店"
    },
    {
        "name": "ピンクパンサー水戸赤塚店",
        "address": "茨城県水戸市河和田1-1",
        "game": "maimai でらっくす",
        "area": "茨城県",
        "game_id": "96",
        "region_id": "7",
        "store_id": "26107",
        "latitude": "36.38044168474524",
        "longitude": "140.4137529957702",
        "map_url": "https://maps.google.com/maps.google.com/maps?q=ピンクパンサー水戸赤塚店"
    },
    {
        "name": "ゲームメガ水戸けやき台店",
        "address": "茨城県水戸市酒門町３２７６−１",
        "game": "maimai でらっくす",
        "area": "茨城県",
        "game_id": "96",
        "region_id": "7",
        "store_id": "24971",
        "latitude": "36.33796237938347",
        "longitude": "140.4832287269836",
        "map_url": "https://maps.google.com/maps.google.com/maps?q=ゲームメガ水戸けやき台店"
    },
    {
        "name": "ユーズランド水戸内原店",
        "address": "茨城県水戸市内原２−１イオンモール水戸内原２Ｆ",
        "game": "maimai でらっくす",
        "area": "茨城県",
        "game_id": "96",
        "region_id": "7",
        "store_id": "25893",
        "latitude": "36.37396288950651",
        "longitude": "140.35838955980228",
        "map_url": "https://maps.google.com/maps.google.com/maps?q=ユーズランド水戸内原店"
    },
    {
        "name": "ＧｉＧＯ水戸南",
        "address": "茨城県水戸市千波町２０１７−１",
        "game": "maimai でらっくす",
        "area": "茨城県",
        "game_id": "96",
        "region_id": "7",
        "store_id": "20506",
        "latitude": "36.350324542678344",
        "longitude": "140.44300017472995",
        "map_url": "https://maps.google.com/maps.google.com/maps?q=ＧｉＧＯ水戸南"
    },
    {
        "name": "ＧｉＧＯ日立",
        "address": "茨城県日立市田尻町３−２６−１",
        "game": "maimai でらっくす",
        "area": "茨城県",
        "game_id": "96",
        "region_id": "7",
        "store_id": "29336",
        "latitude": "36.62643121998619",
        "longitude": "140.66985826878658",
        "map_url": "https://maps.google.com/maps.google.com/maps?q=ＧｉＧＯ日立"
    },
    {
        "name": "ゲームメガ日立店",
        "address": "茨城県日立市東多賀町５−１０−１０",
        "game": "maimai でらっくす",
        "area": "茨城県",
        "game_id": "96",
        "region_id": "7",
        "store_id": "25514",
        "latitude": "36.548234",
        "longitude": "140.6305081",
        "map_url": "https://maps.google.com/maps.google.com/maps?q=ゲームメガ日立店"
    },
    {
        "name": "アミューズビバ",
        "address": "茨城県ひたちなか市東大島２−１１−１１",
        "game": "maimai でらっくす",
        "area": "茨城県",
        "game_id": "96",
        "region_id": "7",
        "store_id": "25536",
        "latitude": "36.406375",
        "longitude": "140.5318511",
        "map_url": "https://maps.google.com/maps.google.com/maps?q=アミューズビバ"
    },
    {
        "name": "ＧｉＧＯひたちなか",
        "address": "茨城県ひたちなか市田中後４０−２",
        "game": "maimai でらっくす",
        "area": "茨城県",
        "game_id": "96",
        "region_id": "7",
        "store_id": "25228",
        "latitude": "36.34750772741275",
        "longitude": "140.58008936560668",
        "map_url": "https://maps.google.com/maps.google.com/maps?q=ＧｉＧＯひたちなか"
    },
    {
        "name": "ＧｉＧＯＭＥＧＡドン・キホーテ勝田",
        "address": "茨城県ひたちなか市石川町１−１ＭＥＧＡドン・キホーテ勝田店２Ｆ",
        "game": "maimai でらっくす",
        "area": "茨城県",
        "game_id": "96",
        "region_id": "7",
        "store_id": "23403",
        "latitude": "36.3931124",
        "longitude": "140.5274577",
        "map_url": "https://maps.google.com/maps.google.com/maps?q=ＧｉＧＯＭＥＧＡドン・キホーテ勝田"
    },
    {
        "name": "ゲームメガつくば店",
        "address": "茨城県つくば市小野崎１７７−２",
        "game": "maimai でらっくす",
        "area": "茨城県",
        "game_id": "96",
        "region_id": "7",
        "store_id": "19418",
        "latitude": "36.0768508",
        "longitude": "140.1047378",
        "map_url": "https://maps.google.com/maps.google.com/maps?q=ゲームメガつくば店"
    },
    {
        "name": "ＧｉＧＯデイズタウンつくば",
        "address": "茨城県つくば市竹園１—９−２デイズタウンつくば地下１Ｆ",
        "game": "maimai でらっくす",
        "area": "茨城県",
        "game_id": "96",
        "region_id": "7",
        "store_id": "26035",
        "latitude": "36.07772936300693",
        "longitude": "140.11533164180298",
        "map_url": "https://maps.google.com/maps.google.com/maps?q=ＧｉＧＯデイズタウンつくば"
    },
    {
        "name": "ｎａｍｃｏiiasつくば店",
        "address": "茨城県つくば市研究学園5-19　iiasつくば店2F2190",
        "game": "maimai でらっくす",
        "area": "茨城県",
        "game_id": "96",
        "region_id": "7",
        "store_id": "24834",
        "latitude": "36.08642926353531",
        "longitude": "140.0838117486877",
        "map_url": "https://maps.google.com/maps.google.com/maps?q=ｎａｍｃｏiiasつくば店"
    },
    {
        "name": "ｎａｍｃｏイオンモールつくば店",
        "address": "茨城県つくば市稲岡66-1ｲｵﾝﾓｰﾙつくば店3F",
        "game": "maimai でらっくす",
        "area": "茨城県",
        "game_id": "96",
        "region_id": "7",
        "store_id": "22819",
        "latitude": "36.033660886688686",
        "longitude": "140.1320541264588",
        "map_url": "https://maps.google.com/maps.google.com/maps?q=ｎａｍｃｏイオンモールつくば店"
    },
    {
        "name": "ＧｉＧＯトナリエクレオつくば",
        "address": "茨城県つくば市吾妻１丁目７−１　トナリエクレオ３Ｆ",
        "game": "maimai でらっくす",
        "area": "茨城県",
        "game_id": "96",
        "region_id": "7",
        "store_id": "19445",
        "latitude": "36.0805071",
        "longitude": "140.1117159",
        "map_url": "https://maps.google.com/maps.google.com/maps?q=ＧｉＧＯトナリエクレオつくば"
    },
    {
        "name": "ＧｉＧＯ石岡",
        "address": "茨城県石岡市東大橋中峯１９７６−１",
        "game": "maimai でらっくす",
        "area": "茨城県",
        "game_id": "96",
        "region_id": "7",
        "store_id": "25513",
        "latitude": "36.1986319157943",
        "longitude": "140.30338608650823",
        "map_url": "https://maps.google.com/maps.google.com/maps?q=ＧｉＧＯ石岡"
    },
    {
        "name": "アミューズメントパレスワンダーヴュー阿見",
        "address": "茨城県稲敷郡阿見町大字阿見２９５８ショッピングセンター２階",
        "game": "maimai でらっくす",
        "area": "茨城県",
        "game_id": "96",
        "region_id": "7",
        "store_id": "21132",
        "latitude": "36.0422643589521",
        "longitude": "140.21005101415562",
        "map_url": "https://maps.google.com/maps.google.com/maps?q=アミューズメントパレスワンダーヴュー阿見"
    },
    {
        "name": "ピンクパンサー下妻店",
        "address": "茨城県下妻市小島884-10",
        "game": "maimai でらっくす",
        "area": "茨城県",
        "game_id": "96",
        "region_id": "7",
        "store_id": "28054",
        "latitude": "36.1702653",
        "longitude": "139.9665309",
        "map_url": "https://maps.google.com/maps.google.com/maps?q=ピンクパンサー下妻店"
    },
    {
        "name": "モーリーファンタジー下妻",
        "address": "茨城県下妻市掘篭９７２−１イオン下妻店2F",
        "game": "maimai でらっくす",
        "area": "茨城県",
        "game_id": "96",
        "region_id": "7",
        "store_id": "24496",
        "latitude": "36.190045892870664",
        "longitude": "139.98972162229006",
        "map_url": "https://maps.google.com/maps.google.com/maps?q=モーリーファンタジー下妻"
    },
    {
        "name": "ゲームパニックつくば",
        "address": "茨城県土浦市中村東1-1-1サンタスワールド内",
        "game": "maimai でらっくす",
        "area": "茨城県",
        "game_id": "96",
        "region_id": "7",
        "store_id": "27010",
        "latitude": "36.0463834",
        "longitude": "140.1682228",
        "map_url": "https://maps.google.com/maps.google.com/maps?q=ゲームパニックつくば"
    },
    {
        "name": "楽市楽座イオンモール土浦店",
        "address": "茨城県土浦市上高津３６７イオンモール土浦ＳＣ３階",
        "game": "maimai でらっくす",
        "area": "茨城県",
        "game_id": "96",
        "region_id": "7",
        "store_id": "24619",
        "latitude": "36.0800877",
        "longitude": "140.1808547",
        "map_url": "https://maps.google.com/maps.google.com/maps?q=楽市楽座イオンモール土浦店"
    },
    {
        "name": "ピンクパンサー土浦店",
        "address": "茨城県土浦市木田余４５８５−３",
        "game": "maimai でらっくす",
        "area": "茨城県",
        "game_id": "96",
        "region_id": "7",
        "store_id": "20183",
        "latitude": "36.1065463",
        "longitude": "140.2151975",
        "map_url": "https://maps.google.com/maps.google.com/maps?q=ピンクパンサー土浦店"
    },
    {
        "name": "ＦＥＳＴＡ古河店",
        "address": "茨城県古河市松並２−１８−１０マーケットシティ古河",
        "game": "maimai でらっくす",
        "area": "茨城県",
        "game_id": "96",
        "region_id": "7",
        "store_id": "25416",
        "latitude": "36.209713594169415",
        "longitude": "139.709653102655",
        "map_url": "https://maps.google.com/maps.google.com/maps?q=ＦＥＳＴＡ古河店"
    },
    {
        "name": "ＧＡＭＥ ＰＡＤＤＯＣＫ＋１",
        "address": "茨城県古河市小堤１９１６−１",
        "game": "maimai でらっくす",
        "area": "茨城県",
        "game_id": "96",
        "region_id": "7",
        "store_id": "28949",
        "latitude": "36.2067383",
        "longitude": "139.7578725",
        "map_url": "https://maps.google.com/maps.google.com/maps?q=ＧＡＭＥ ＰＡＤＤＯＣＫ＋１"
    },
    {
        "name": "ＧｉＧＯショッピングセンターチェリオ鹿嶋",
        "address": "茨城県鹿嶋市宮中２９０−１ショッピングセンターチェリオ１階",
        "game": "maimai でらっくす",
        "area": "茨城県",
        "game_id": "96",
        "region_id": "7",
        "store_id": "26250",
        "latitude": "35.959598578005476",
        "longitude": "140.64375415886082",
        "map_url": "https://maps.google.com/maps.google.com/maps?q=ＧｉＧＯショッピングセンターチェリオ鹿嶋"
    },
    {
        "name": "ＳＯＹＵ　ＴＯＹ’Ｓ　ＮＹ　守谷店",
        "address": "茨城県守谷市百合ヶ丘3-249-1　イオンタウン守谷2Ｆ",
        "game": "maimai でらっくす",
        "area": "茨城県",
        "game_id": "96",
        "region_id": "7",
        "store_id": "24376",
        "latitude": "35.94479432347796",
        "longitude": "139.99060060904537",
        "map_url": "https://maps.google.com/maps.google.com/maps?q=ＳＯＹＵ　ＴＯＹ’Ｓ　ＮＹ　守谷店"
    },
    {
        "name": "ＧｉＧＯ神栖",
        "address": "茨城県神栖市神栖１ー８−１",
        "game": "maimai でらっくす",
        "area": "茨城県",
        "game_id": "96",
        "region_id": "7",
        "store_id": "26623",
        "latitude": "35.8979951",
        "longitude": "140.6444094",
        "map_url": "https://maps.google.com/maps.google.com/maps?q=ＧｉＧＯ神栖"
    },
    {
        "name": "ゲームメガみらい平店",
        "address": "茨城県つくばみらい市陽光台１−１４−１",
        "game": "maimai でらっくす",
        "area": "茨城県",
        "game_id": "96",
        "region_id": "7",
        "store_id": "25755",
        "latitude": "35.995524428765755",
        "longitude": "140.0406751203766",
        "map_url": "https://maps.google.com/maps.google.com/maps?q=ゲームメガみらい平店"
    },
    {
        "name": "ＧｉＧＯ龍ケ崎",
        "address": "茨城県龍ケ崎市藤ケ丘４−２−８",
        "game": "maimai でらっくす",
        "area": "茨城県",
        "game_id": "96",
        "region_id": "7",
        "store_id": "25157",
        "latitude": "35.9385388",
        "longitude": "140.1959422",
        "map_url": "https://maps.google.com/maps.google.com/maps?q=ＧｉＧＯ龍ケ崎"
    },
    {
        "name": "アピナ下館店",
        "address": "茨城県筑西市玉戸１０１２−３",
        "game": "maimai でらっくす",
        "area": "茨城県",
        "game_id": "96",
        "region_id": "7",
        "store_id": "26871",
        "latitude": "36.295425571270805",
        "longitude": "139.94568928413082",
        "map_url": "https://maps.google.com/maps.google.com/maps?q=アピナ下館店"
    },
    {
        "name": "タイトーＦステーションヨークタウン坂東店",
        "address": "茨城県坂東市辺田１１０４番地１",
        "game": "maimai でらっくす",
        "area": "茨城県",
        "game_id": "96",
        "region_id": "7",
        "store_id": "20153",
        "latitude": "36.037623995918885",
        "longitude": "139.8922447294998",
        "map_url": "https://maps.google.com/maps.google.com/maps?q=タイトーＦステーションヨークタウン坂東店"
    },
    {
        "name": "ＧｉＧＯ霞ヶ浦",
        "address": "茨城県稲敷市西代１４７３−１",
        "game": "maimai でらっくす",
        "area": "茨城県",
        "game_id": "96",
        "region_id": "7",
        "store_id": "29078",
        "latitude": "35.9183324",
        "longitude": "140.4848113",
        "map_url": "https://maps.google.com/maps.google.com/maps?q=ＧｉＧＯ霞ヶ浦"
    }
]