[
    {
        "name": "Ａ．Ｃ．グランド",
        "address": "岐阜県岐阜市茜部大川1-77",
        "game": "オンゲキ",
        "area": "岐阜県",
        "game_id": "88",
        "region_id": "20",
        "store_id": "28503",
        "latitude": "35.3830948",
        "longitude": "136.7461877",
        "map_url": "https://maps.google.com/maps.google.com/maps?q=Ａ．Ｃ．グランド"
    },
    {
        "name": "ゲームファンタジアン柳津店",
        "address": "岐阜県岐阜市柳津町上佐波西3-68",
        "game": "オンゲキ",
        "area": "岐阜県",
        "game_id": "88",
        "region_id": "20",
        "store_id": "28618",
        "latitude": "35.37596905572698",
        "longitude": "136.71455995540987",
        "map_url": "https://maps.google.com/maps.google.com/maps?q=ゲームファンタジアン柳津店"
    },
    {
        "name": "モーリーファンタジーｆ 岐阜",
        "address": "岐阜県岐阜市正木中１−２−１マーサ２１北館３Ｆ",
        "game": "オンゲキ",
        "area": "岐阜県",
        "game_id": "88",
        "region_id": "20",
        "store_id": "25303",
        "latitude": "35.4484474",
        "longitude": "136.7449465",
        "map_url": "https://maps.google.com/maps.google.com/maps?q=モーリーファンタジーｆ 岐阜"
    },
    {
        "name": "コミ丸アリババ大垣店",
        "address": "岐阜県大垣市池尻町９４０−１",
        "game": "オンゲキ",
        "area": "岐阜県",
        "game_id": "88",
        "region_id": "20",
        "store_id": "27703",
        "latitude": "35.3840722",
        "longitude": "136.5956108",
        "map_url": "https://maps.google.com/maps.google.com/maps?q=コミ丸アリババ大垣店"
    },
    {
        "name": "大垣メトロポリス",
        "address": "岐阜県大垣市三塚町西沼５２３−１",
        "game": "オンゲキ",
        "area": "岐阜県",
        "game_id": "88",
        "region_id": "20",
        "store_id": "25834",
        "latitude": "35.3670652023352",
        "longitude": "136.62923328719887",
        "map_url": "https://maps.google.com/maps.google.com/maps?q=大垣メトロポリス"
    },
    {
        "name": "ＧｉＧＯアクアウォーク大垣",
        "address": "岐阜県大垣市林町６ー８０ー２１アクアウォーク大垣２Ｆ",
        "game": "オンゲキ",
        "area": "岐阜県",
        "game_id": "88",
        "region_id": "20",
        "store_id": "25129",
        "latitude": "35.36878559076029",
        "longitude": "136.616647167235",
        "map_url": "https://maps.google.com/maps.google.com/maps?q=ＧｉＧＯアクアウォーク大垣"
    },
    {
        "name": "オリエンタルバッティング可児店",
        "address": "岐阜県可児市今渡６９５−１",
        "game": "オンゲキ",
        "area": "岐阜県",
        "game_id": "88",
        "region_id": "20",
        "store_id": "25605",
        "latitude": "35.4295361",
        "longitude": "137.0390542",
        "map_url": "https://maps.google.com/maps.google.com/maps?q=オリエンタルバッティング可児店"
    },
    {
        "name": "ｎａｍｃｏイオンモール各務原インター店",
        "address": "岐阜県各務原市那加萱場町３−８イオンモール各務原店２Ｆ",
        "game": "オンゲキ",
        "area": "岐阜県",
        "game_id": "88",
        "region_id": "20",
        "store_id": "25227",
        "latitude": "35.39253853876418",
        "longitude": "136.82306713730964",
        "map_url": "https://maps.google.com/maps.google.com/maps?q=ｎａｍｃｏイオンモール各務原インター店"
    },
    {
        "name": "アピナ各務原店",
        "address": "岐阜県各務原市蘇原花園町２丁目９番地１",
        "game": "オンゲキ",
        "area": "岐阜県",
        "game_id": "88",
        "region_id": "20",
        "store_id": "19657",
        "latitude": "35.4120854",
        "longitude": "136.848068",
        "map_url": "https://maps.google.com/maps.google.com/maps?q=アピナ各務原店"
    },
    {
        "name": "ＧｉＧＯ高山",
        "address": "岐阜県高山市上岡本町７−７",
        "game": "オンゲキ",
        "area": "岐阜県",
        "game_id": "88",
        "region_id": "20",
        "store_id": "29229",
        "latitude": "36.1426267",
        "longitude": "137.2436265",
        "map_url": "https://maps.google.com/maps.google.com/maps?q=ＧｉＧＯ高山"
    },
    {
        "name": "ＭＩＲＡＩＮＯイオンモール土岐店",
        "address": "岐阜県土岐市土岐津町土岐口中山１３７２番１",
        "game": "オンゲキ",
        "area": "岐阜県",
        "game_id": "88",
        "region_id": "20",
        "store_id": "19212",
        "latitude": "35.3465558",
        "longitude": "137.182528",
        "map_url": "https://maps.google.com/maps.google.com/maps?q=ＭＩＲＡＩＮＯイオンモール土岐店"
    },
    {
        "name": "ＧｉＧＯマーゴ関",
        "address": "岐阜県関市倉知５１６",
        "game": "オンゲキ",
        "area": "岐阜県",
        "game_id": "88",
        "region_id": "20",
        "store_id": "26836",
        "latitude": "35.47964777305663",
        "longitude": "136.9006802314757",
        "map_url": "https://maps.google.com/maps.google.com/maps?q=ＧｉＧＯマーゴ関"
    },
    {
        "name": "岐阜レジャーランド穂積店",
        "address": "岐阜県瑞穂市稲里630番地",
        "game": "オンゲキ",
        "area": "岐阜県",
        "game_id": "88",
        "region_id": "20",
        "store_id": "28823",
        "latitude": "35.384332167682196",
        "longitude": "136.68466387725402",
        "map_url": "https://maps.google.com/maps.google.com/maps?q=岐阜レジャーランド穂積店"
    },
    {
        "name": "ラウンドワンモレラ岐阜店",
        "address": "岐阜県本巣市三橋１１００",
        "game": "オンゲキ",
        "area": "岐阜県",
        "game_id": "88",
        "region_id": "20",
        "store_id": "23964",
        "latitude": "35.45521058086246",
        "longitude": "136.6727656884915",
        "map_url": "https://maps.google.com/maps.google.com/maps?q=ラウンドワンモレラ岐阜店"
    },
    {
        "name": "アピナ本巣店",
        "address": "岐阜県本巣市政田字下西浦１９８６イオンタウン本巣内",
        "game": "オンゲキ",
        "area": "岐阜県",
        "game_id": "88",
        "region_id": "20",
        "store_id": "19484",
        "latitude": "35.4319449",
        "longitude": "136.6411452",
        "map_url": "https://maps.google.com/maps.google.com/maps?q=アピナ本巣店"
    }
]