[
    {
        "name": "サンシャイン",
        "address": "岩手県盛岡市大通２ー７ー２１ジュリアンビル１階",
        "game": "オンゲキ",
        "area": "岩手県",
        "game_id": "88",
        "region_id": "2",
        "store_id": "22937",
        "latitude": "39.70319193803251",
        "longitude": "141.14543430552249",
        "map_url": "https://maps.google.com/maps.google.com/maps?q=サンシャイン"
    },
    {
        "name": "ソユーゲームフィールド盛岡南",
        "address": "岩手県盛岡市本宮7-1-1ｲｵﾝﾓｰﾙ盛岡南1F",
        "game": "オンゲキ",
        "area": "岩手県",
        "game_id": "88",
        "region_id": "2",
        "store_id": "22812",
        "latitude": "39.68356695847018",
        "longitude": "141.1286693809509",
        "map_url": "https://maps.google.com/maps.google.com/maps?q=ソユーゲームフィールド盛岡南"
    },
    {
        "name": "ラウンドワン盛岡店",
        "address": "岩手県盛岡市盛岡駅西通２−１０−３５",
        "game": "オンゲキ",
        "area": "岩手県",
        "game_id": "88",
        "region_id": "2",
        "store_id": "25175",
        "latitude": "39.7003942",
        "longitude": "141.1331774",
        "map_url": "https://maps.google.com/maps.google.com/maps?q=ラウンドワン盛岡店"
    },
    {
        "name": "ソユーファミリーゲームフィールド花巻店",
        "address": "岩手県花巻市高木第１６地割６８−６　銀河モール１Ｆ",
        "game": "オンゲキ",
        "area": "岩手県",
        "game_id": "88",
        "region_id": "2",
        "store_id": "24952",
        "latitude": "39.3864097",
        "longitude": "141.1359548",
        "map_url": "https://maps.google.com/maps.google.com/maps?q=ソユーファミリーゲームフィールド花巻店"
    },
    {
        "name": "アミューズメントゾーン北上店",
        "address": "岩手県北上市本通2-2-1さくら野北上店4F",
        "game": "オンゲキ",
        "area": "岩手県",
        "game_id": "88",
        "region_id": "2",
        "store_id": "26312",
        "latitude": "39.28844255476702",
        "longitude": "141.11582491163938",
        "map_url": "https://maps.google.com/maps.google.com/maps?q=アミューズメントゾーン北上店"
    },
    {
        "name": "チャットタウン北上店",
        "address": "岩手県北上市北鬼柳１９地割６８番地　江釣子ＳＣパル２Ｆ",
        "game": "オンゲキ",
        "area": "岩手県",
        "game_id": "88",
        "region_id": "2",
        "store_id": "23458",
        "latitude": "39.29318789535935",
        "longitude": "141.0930970725692",
        "map_url": "https://maps.google.com/maps.google.com/maps?q=チャットタウン北上店"
    },
    {
        "name": "ＰＡＬＯ久慈",
        "address": "岩手県久慈市長内町第３０地割３２−２久慈SC１F",
        "game": "オンゲキ",
        "area": "岩手県",
        "game_id": "88",
        "region_id": "2",
        "store_id": "26897",
        "latitude": "40.18986157592543",
        "longitude": "141.78559756403195",
        "map_url": "https://maps.google.com/maps.google.com/maps?q=ＰＡＬＯ久慈"
    },
    {
        "name": "ＧｉＧＯ水沢",
        "address": "岩手県奥州市水沢佐倉河字鐙田４−１",
        "game": "オンゲキ",
        "area": "岩手県",
        "game_id": "88",
        "region_id": "2",
        "store_id": "29099",
        "latitude": "39.15265691424136",
        "longitude": "141.14937215034558",
        "map_url": "https://maps.google.com/maps.google.com/maps?q=ＧｉＧＯ水沢"
    },
    {
        "name": "テクノワールド",
        "address": "岩手県奥州市江刺愛宕字梁川１２７−１",
        "game": "オンゲキ",
        "area": "岩手県",
        "game_id": "88",
        "region_id": "2",
        "store_id": "22829",
        "latitude": "39.1792419",
        "longitude": "141.1621682",
        "map_url": "https://maps.google.com/maps.google.com/maps?q=テクノワールド"
    },
    {
        "name": "ソユーゲームフィールド釜石店",
        "address": "岩手県釜石市港町２−１−１イオンタウン釜石店３F",
        "game": "オンゲキ",
        "area": "岩手県",
        "game_id": "88",
        "region_id": "2",
        "store_id": "22421",
        "latitude": "39.2711987516425",
        "longitude": "141.88180519996945",
        "map_url": "https://maps.google.com/maps.google.com/maps?q=ソユーゲームフィールド釜石店"
    }
]