[
    {
        "name": "ＧｉＧＯ北山形",
        "address": "山形県山形市北町１−３−２０",
        "game": "オンゲキ",
        "area": "山形県",
        "game_id": "88",
        "region_id": "5",
        "store_id": "29375",
        "latitude": "38.268249140541215",
        "longitude": "140.33135098836055",
        "map_url": "https://maps.google.com/maps.google.com/maps?q=ＧｉＧＯ北山形"
    },
    {
        "name": "トレジャーサバイバル",
        "address": "山形県山形市北町２−２−４５",
        "game": "オンゲキ",
        "area": "山形県",
        "game_id": "88",
        "region_id": "5",
        "store_id": "22345",
        "latitude": "38.268743",
        "longitude": "140.32938",
        "map_url": "https://maps.google.com/maps.google.com/maps?q=トレジャーサバイバル"
    },
    {
        "name": "スタジオプリモ山形店",
        "address": "山形県山形市城南町１−１−１　霞城セントラル２Ｆ",
        "game": "オンゲキ",
        "area": "山形県",
        "game_id": "88",
        "region_id": "5",
        "store_id": "20178",
        "latitude": "38.2501614",
        "longitude": "140.3267779",
        "map_url": "https://maps.google.com/maps.google.com/maps?q=スタジオプリモ山形店"
    },
    {
        "name": "アピナ鶴岡店",
        "address": "山形県鶴岡市文下字広野１−１",
        "game": "オンゲキ",
        "area": "山形県",
        "game_id": "88",
        "region_id": "5",
        "store_id": "25296",
        "latitude": "38.7581391693968",
        "longitude": "139.84438268843223",
        "map_url": "https://maps.google.com/maps.google.com/maps?q=アピナ鶴岡店"
    },
    {
        "name": "ＧｉＧＯ天童",
        "address": "山形県天童市南町１−５−２６",
        "game": "オンゲキ",
        "area": "山形県",
        "game_id": "88",
        "region_id": "5",
        "store_id": "28771",
        "latitude": "38.3429386",
        "longitude": "140.3741282",
        "map_url": "https://maps.google.com/maps.google.com/maps?q=ＧｉＧＯ天童"
    },
    {
        "name": "ＧｉＧＯ米沢",
        "address": "山形県米沢市大字花沢字タナコ原１７７",
        "game": "オンゲキ",
        "area": "山形県",
        "game_id": "88",
        "region_id": "5",
        "store_id": "29072",
        "latitude": "37.91093651673036",
        "longitude": "140.1336701841002",
        "map_url": "https://maps.google.com/maps.google.com/maps?q=ＧｉＧＯ米沢"
    },
    {
        "name": "ＳＯＹＵＧａｍｅＦｉｅｌｄ酒田店",
        "address": "山形県酒田市泉町１９８番地イオンタウン酒田内",
        "game": "オンゲキ",
        "area": "山形県",
        "game_id": "88",
        "region_id": "5",
        "store_id": "19015",
        "latitude": "38.9357019",
        "longitude": "139.846927",
        "map_url": "https://maps.google.com/maps.google.com/maps?q=ＳＯＹＵＧａｍｅＦｉｅｌｄ酒田店"
    },
    {
        "name": "ソユーゲームフィールド三川店",
        "address": "山形県東田川郡三川町大字猪子字和田庫１２８−１イオン三川１Ｆ",
        "game": "オンゲキ",
        "area": "山形県",
        "game_id": "88",
        "region_id": "5",
        "store_id": "26375",
        "latitude": "38.81595693815604",
        "longitude": "139.83545801551793",
        "map_url": "https://maps.google.com/maps.google.com/maps?q=ソユーゲームフィールド三川店"
    }
]