[
    {
        "name": "アピナ四日市店",
        "address": "三重県四日市市泊小柳町４−３４",
        "game": "オンゲキ",
        "area": "三重県",
        "game_id": "88",
        "region_id": "23",
        "store_id": "25686",
        "latitude": "34.9393248",
        "longitude": "136.6068238",
        "map_url": "https://maps.google.com/maps.google.com/maps?q=アピナ四日市店"
    },
    {
        "name": "ＧｉＧＯ生桑",
        "address": "三重県四日市市生桑町字川原崎２９９−１",
        "game": "オンゲキ",
        "area": "三重県",
        "game_id": "88",
        "region_id": "23",
        "store_id": "29238",
        "latitude": "34.986458956564974",
        "longitude": "136.60162954414557",
        "map_url": "https://maps.google.com/maps.google.com/maps?q=ＧｉＧＯ生桑"
    },
    {
        "name": "プレビ　トナリエ四日市",
        "address": "三重県四日市市安島１−３−３１トナリエ５階",
        "game": "オンゲキ",
        "area": "三重県",
        "game_id": "88",
        "region_id": "23",
        "store_id": "26359",
        "latitude": "34.9686061",
        "longitude": "136.6166547",
        "map_url": "https://maps.google.com/maps.google.com/maps?q=プレビ　トナリエ四日市"
    },
    {
        "name": "アミューズメントスペースコミ丸四日市店",
        "address": "三重県四日市市鵜の森1-3-19",
        "game": "オンゲキ",
        "area": "三重県",
        "game_id": "88",
        "region_id": "23",
        "store_id": "19389",
        "latitude": "34.9664199",
        "longitude": "136.6164714",
        "map_url": "https://maps.google.com/maps.google.com/maps?q=アミューズメントスペースコミ丸四日市店"
    },
    {
        "name": "ラウンドワン津・高茶屋店",
        "address": "三重県津市高茶屋小森町２７７−８",
        "game": "オンゲキ",
        "area": "三重県",
        "game_id": "88",
        "region_id": "23",
        "store_id": "24770",
        "latitude": "34.6724656",
        "longitude": "136.5194702",
        "map_url": "https://maps.google.com/maps.google.com/maps?q=ラウンドワン津・高茶屋店"
    },
    {
        "name": "ＰＡＬＯ津南",
        "address": "三重県津市高茶屋小森町１４５番地　イオンモール津南３Ｆ",
        "game": "オンゲキ",
        "area": "三重県",
        "game_id": "88",
        "region_id": "23",
        "store_id": "20210",
        "latitude": "34.666919",
        "longitude": "136.4897805",
        "map_url": "https://maps.google.com/maps.google.com/maps?q=ＰＡＬＯ津南"
    },
    {
        "name": "ＧｉＧＯ久居",
        "address": "三重県津市久居明神町字風早２５３４−１",
        "game": "オンゲキ",
        "area": "三重県",
        "game_id": "88",
        "region_id": "23",
        "store_id": "26411",
        "latitude": "34.68420479495355",
        "longitude": "136.46684279524538",
        "map_url": "https://maps.google.com/maps.google.com/maps?q=ＧｉＧＯ久居"
    },
    {
        "name": "ＰＡＬＯ桑名",
        "address": "三重県桑名市新西方１−２２イオン２Ｆ",
        "game": "オンゲキ",
        "area": "三重県",
        "game_id": "88",
        "region_id": "23",
        "store_id": "21294",
        "latitude": "35.072384",
        "longitude": "136.6622437",
        "map_url": "https://maps.google.com/maps.google.com/maps?q=ＰＡＬＯ桑名"
    },
    {
        "name": "アピナ鈴鹿店",
        "address": "三重県鈴鹿市庄野羽山4-20-1イオンタウン鈴鹿2階",
        "game": "オンゲキ",
        "area": "三重県",
        "game_id": "88",
        "region_id": "23",
        "store_id": "22865",
        "latitude": "34.872188779517735",
        "longitude": "136.5270463650471",
        "map_url": "https://maps.google.com/maps.google.com/maps?q=アピナ鈴鹿店"
    },
    {
        "name": "アミパラ鈴鹿店",
        "address": "三重県鈴鹿市西条町字東澤430-1",
        "game": "オンゲキ",
        "area": "三重県",
        "game_id": "88",
        "region_id": "23",
        "store_id": "21323",
        "latitude": "34.875263768120966",
        "longitude": "136.57114359870297",
        "map_url": "https://maps.google.com/maps.google.com/maps?q=アミパラ鈴鹿店"
    },
    {
        "name": "ゲームチャオ松阪店",
        "address": "三重県松阪市船江町７８０",
        "game": "オンゲキ",
        "area": "三重県",
        "game_id": "88",
        "region_id": "23",
        "store_id": "29260",
        "latitude": "34.5886531",
        "longitude": "136.5258425",
        "map_url": "https://maps.google.com/maps.google.com/maps?q=ゲームチャオ松阪店"
    },
    {
        "name": "ＧｉＧＯアドバンスモール松阪",
        "address": "三重県松阪市田村町２３５−１",
        "game": "オンゲキ",
        "area": "三重県",
        "game_id": "88",
        "region_id": "23",
        "store_id": "26732",
        "latitude": "34.55389737480224",
        "longitude": "136.51466078203123",
        "map_url": "https://maps.google.com/maps.google.com/maps?q=ＧｉＧＯアドバンスモール松阪"
    },
    {
        "name": "ＧｉＧＯ名張",
        "address": "三重県名張市希央台３番町１５",
        "game": "オンゲキ",
        "area": "三重県",
        "game_id": "88",
        "region_id": "23",
        "store_id": "25177",
        "latitude": "34.6235067",
        "longitude": "136.1035133",
        "map_url": "https://maps.google.com/maps.google.com/maps?q=ＧｉＧＯ名張"
    },
    {
        "name": "ＧｉＧＯ伊勢",
        "address": "三重県伊勢市中須町６６６",
        "game": "オンゲキ",
        "area": "三重県",
        "game_id": "88",
        "region_id": "23",
        "store_id": "23860",
        "latitude": "34.4921013",
        "longitude": "136.6780636",
        "map_url": "https://maps.google.com/maps.google.com/maps?q=ＧｉＧＯ伊勢"
    },
    {
        "name": "アソビックスゲームワールド",
        "address": "三重県三重郡朝日町小向181",
        "game": "オンゲキ",
        "area": "三重県",
        "game_id": "88",
        "region_id": "23",
        "store_id": "26887",
        "latitude": "35.0306354",
        "longitude": "136.6728597",
        "map_url": "https://maps.google.com/maps.google.com/maps?q=アソビックスゲームワールド"
    },
    {
        "name": "ラウンドワンみえ川越インターチェンジ店",
        "address": "三重県三重郡川越町南福崎８５１−１",
        "game": "オンゲキ",
        "area": "三重県",
        "game_id": "88",
        "region_id": "23",
        "store_id": "25040",
        "latitude": "35.02290147217703",
        "longitude": "136.68352991904908",
        "map_url": "https://maps.google.com/maps.google.com/maps?q=ラウンドワンみえ川越インターチェンジ店"
    },
    {
        "name": "ドリームキャンディ",
        "address": "三重県伊賀市小田町７１１−１",
        "game": "オンゲキ",
        "area": "三重県",
        "game_id": "88",
        "region_id": "23",
        "store_id": "27577",
        "latitude": "34.7752694",
        "longitude": "136.12279390000003",
        "map_url": "https://maps.google.com/maps.google.com/maps?q=ドリームキャンディ"
    }
]